ts,stationcode,name,arrdt,lat,lon,bikes,docks
2025-08-20T15:45:23Z,40001,Hôpital Mondor,Créteil,48.798922410229,2.4537451531298,14,14
2025-08-20T15:45:23Z,32017,Basilique,Saint-Denis,48.93626891059109,2.3588666820200914,7,12
2025-08-20T15:45:23Z,11104,Charonne - Robert et Sonia Delaunay,Paris,48.855907555969,2.3925706744194,1,19
2025-08-20T15:45:23Z,6003,Saint-Sulpice,Paris,48.85165383178419,2.3308077827095985,7,12
2025-08-20T15:45:23Z,7002,Vaneau - Sèvres,Paris,48.848563233059,2.3204218259346,13,22
2025-08-20T15:45:23Z,5110,Lacépède - Monge,Paris,48.84389286531899,2.3519663885235786,7,16
2025-08-20T15:45:23Z,6108,Saint-Romain - Cherche-Midi,Paris,48.84708159081946,2.321374788880348,4,13
2025-08-20T15:45:23Z,33006,André Karman - République,Aubervilliers,48.91039875761846,2.3851355910301213,11,20
2025-08-20T15:45:23Z,40011,Bas du Mont-Mesly,Créteil,48.779035118572,2.4609763908985,26,1
2025-08-20T15:45:23Z,7003,Square Boucicaut,Paris,48.851296433665276,2.325061820447445,23,37
2025-08-20T15:45:23Z,17041,Guersant - Gouvion-Saint-Cyr,Paris,48.88287775178599,2.287667370814871,1,35
2025-08-20T15:45:23Z,5016,Thouin - Cardinal Lemoine,Paris,48.84504716661511,2.3494647851273465,1,16
2025-08-20T15:45:23Z,15047,Morillons - Dantzig,Paris,48.83310149953933,2.299380004405976,2,50
2025-08-20T15:45:23Z,17026,Jouffroy d'Abbans - Wagram,Paris,48.881973298352,2.301132157445,4,35
2025-08-20T15:45:23Z,12109,Mairie du 12ème,Paris,48.840855311763,2.3875549435616,15,14
2025-08-20T15:45:23Z,6021,Beaux-Arts - Bonaparte,Paris,48.856451985396,2.3348518833518,7,11
2025-08-20T15:45:23Z,15202,Bracion - Périphérique,Paris,48.826103771275,2.3004549373748,7,23
2025-08-20T15:45:23Z,42208,Place des Marseillais,Charenton-le-Pont,48.826605522232,2.4059119927899,0,33
2025-08-20T15:45:23Z,31024,Romainville - Vaillant-Couturier,Montreuil,48.86785,2.446748,5,33
2025-08-20T15:45:23Z,17044,Porte de Saint-Ouen - Bessières,Paris,48.89792240854517,2.32851451022192,10,31
2025-08-20T15:45:23Z,19033,Cambrai - Benjamin Constant,Paris,48.89594736851349,2.381133802246315,5,36
2025-08-20T15:45:23Z,21326,Moulin de Pierre - Abbé Grégoire,Issy-les-Moulineaux,48.822036188382,2.2754641655975,6,12
2025-08-20T15:45:23Z,21216,Louis Lejeune - Barbès,Montrouge,48.81807418981508,2.3267009854316716,3,22
2025-08-20T15:45:23Z,22207,Rond-point du Dr Albert Schweitzer,Bagneux,48.78980918988166,2.3143940046429634,6,16
2025-08-20T15:45:23Z,31028,Raspail Barbès,Montreuil,48.8529945,2.4247387,17,10
2025-08-20T15:45:23Z,16118,Michel-Ange - Parent de Rosan,Paris,48.840579923690115,2.2584119439125065,7,18
2025-08-20T15:45:23Z,2017,Caire - Dussoubs,Paris,48.86785342111862,2.349364310503006,30,9
2025-08-20T15:45:23Z,8048,Marceau - Chaillot,Paris,48.868834023334,2.2986030816809,10,11
2025-08-20T15:45:23Z,14013,Liard - Amiral Mouchez,Paris,48.8214169,2.342167,3,24
2025-08-20T15:45:23Z,40016,Sarrazins - Saussure,Créteil,48.769626617432,2.4717841148376,18,3
2025-08-20T15:45:23Z,18111,Félix Ziem - Armand Gauthier,Paris,48.88949630486821,2.333393658804396,5,20
2025-08-20T15:45:23Z,9002,Abbeville - Faubourg Poissonnière,Paris,48.879223,2.349147,2,11
2025-08-20T15:45:23Z,16110,Octave Feuillet - Albéric Magnard,Paris,48.86106902949534,2.2730283066630363,1,20
2025-08-20T15:45:23Z,44015,Rouget de L'isle - Watteau,Vitry-sur-Seine,48.778192750803,2.3963020229163,19,1
2025-08-20T15:45:23Z,43009,Place Jean-Spire-Lemaître,Vincennes,48.8468428626593,2.452062070369721,1,49
2025-08-20T15:45:23Z,17032,Jean Oestreicher - Porte de Champerret,Paris,48.88655580065981,2.288640439510346,5,16
2025-08-20T15:45:23Z,12031,Gabriel Lamé,Paris,48.8351212784276,2.385534569621086,31,4
2025-08-20T15:45:23Z,9038,Douai - Bruxelles,Paris,48.88320784122797,2.3308449949028507,5,22
2025-08-20T15:45:23Z,31103,Gare Rosny-Bois-Perrier,Rosny-sous-Bois,48.88115023337061,2.480436824262142,17,18
2025-08-20T15:45:23Z,7018,Ségur - d'Estrées,Paris,48.851419978983,2.3097044974566,10,9
2025-08-20T15:45:23Z,5005,Gay Lussac - Saint-Jacques,Paris,48.844730256132,2.3419239448664,7,35
2025-08-20T15:45:23Z,21323,Charlot - Stade Gabriel Voisin,Issy-les-Moulineaux,48.827228120536,2.268122527474,30,0
2025-08-20T15:45:23Z,8053,Place Georges Guillaumin,Paris,48.874750203957,2.301771435326,5,24
2025-08-20T15:45:23Z,9106,Boudreau - Auber,Paris,48.87219,2.329423,19,9
2025-08-20T15:45:23Z,19105,Ambroise Rendu - Porte Brunet,Paris,48.883667,2.395733,3,13
2025-08-20T15:45:23Z,22409,Henri Barbusse - Stalingrad,Malakoff,48.814183748660554,2.2872862592339516,2,13
2025-08-20T15:45:23Z,19015,Thionville - Ourcq,Paris,48.88917613743794,2.3833653330802917,7,17
2025-08-20T15:45:23Z,17004,Legendre - Clichy,Paris,48.88896161855884,2.322528975094376,2,38
2025-08-20T15:45:23Z,26003,Argenteuil - Voltaire,Asnières-sur-Seine,48.918648659556,2.281411215663,3,13
2025-08-20T15:45:23Z,92007,Pesaro - Préfecture,Nanterre,48.89577046284005,2.223908342421055,5,15
2025-08-20T15:45:23Z,9028,Moncey - Blanche,Paris,48.88006587474148,2.3310810327529907,5,12
2025-08-20T15:45:23Z,10107,Gare du Nord - Hôpital Lariboisière,Paris,48.881949,2.352339,2,46
2025-08-20T15:45:23Z,19026,Place de Rhin et Danube,Paris,48.88192765861766,2.392586767673493,3,11
2025-08-20T15:45:23Z,11002,Roquette - Thiéré,Paris,48.85507930579506,2.3733686318721463,20,2
2025-08-20T15:45:23Z,11047,Amelot - Saint-Sébastien,Paris,48.861142162761,2.3677996181077,21,7
2025-08-20T15:45:23Z,5032,Panthéon - Valette,Paris,48.847020571652,2.3464982619671,7,32
2025-08-20T15:45:23Z,18107,Chartres - La Charbonnière,Paris,48.8847601,2.3534657,4,30
2025-08-20T15:45:23Z,6006,Notre-Dame-des-Champs - Stanislas,Paris,48.84479928858768,2.329337755887181,9,10
2025-08-20T15:45:23Z,31022,Mairie de Montreuil,Montreuil,48.86131452758348,2.440614402294159,5,46
2025-08-20T15:45:23Z,46002,Rouget de Lisle,Choisy-le-Roi,48.764615483395254,2.4071189761161804,31,3
2025-08-20T15:45:23Z,31009,Place Du Général De Gaulle,Montreuil,48.8687591,2.4329931,1,25
2025-08-20T15:45:23Z,14020,Cimetière de Montrouge,Paris,48.821466904768,2.3215785772007,13,45
2025-08-20T15:45:23Z,33017,Anatole France - President Roosevelt,Aubervilliers,48.9155156,2.3814103,22,5
2025-08-20T15:45:23Z,18011,Pajol - Place Herbert,Paris,48.8927825,2.3635598,1,36
2025-08-20T15:45:23Z,42706,Roger Salengro - Fontainebleau,Le Kremlin-Bicêtre,48.814548697325,2.3611663654447,3,22
2025-08-20T15:45:23Z,21212,Marne - Germain Dardan,Montrouge,48.81217465201,2.3035024699104,1,21
2025-08-20T15:45:23Z,19120,Carducci - Place Hannah Arendt,Paris,48.877436681515796,2.3860743641853337,1,26
2025-08-20T15:45:23Z,11113,Richard Lenoir - Republique,Paris,48.8667175,2.3692541,19,37
2025-08-20T15:45:23Z,15104,Hôpital Européen Georges Pompidou,Paris,48.837695319163,2.2753742337227,55,9
2025-08-20T15:45:23Z,43008,Fontenay - Libération,Vincennes,48.847803063647,2.4451419711113,6,19
2025-08-20T15:45:23Z,5018,Mutualité,Paris,48.848225572724,2.3502873256803,30,5
2025-08-20T15:45:23Z,19101,Square Simon Bolivar,Paris,48.875089888322,2.3826304078102,3,21
2025-08-20T15:45:23Z,17204,Paul Bodin - Clichy,Paris,48.892594758409,2.3171403311203,7,21
2025-08-20T15:45:23Z,41209,Cimetière de Fontenay-sous-Bois,Fontenay-sous-Bois,48.84706173362218,2.4787822365760808,2,13
2025-08-20T15:45:23Z,14008,Mouton Duvernet - Général Leclerc,Paris,48.831632518293,2.3293121159077,9,18
2025-08-20T15:45:23Z,13001,Port-Royal - Hôpital du Val-de-Grâce,Paris,48.837668272811,2.3448138346607,1,17
2025-08-20T15:45:23Z,8017,Rocher - Laborde,Paris,48.87590240712654,2.322616316378116,3,61
2025-08-20T15:45:23Z,15054,Lecourbe - Jean Maridor,Paris,48.83796366147599,2.2877392172813416,9,10
2025-08-20T15:45:23Z,15106,Grenelle - Violet,Paris,48.84993035512154,2.294612042605877,32,3
2025-08-20T15:45:23Z,14106,Marc Sangnier - Porte de Vanves,Paris,48.825218683556734,2.3107116669416428,4,17
2025-08-20T15:45:23Z,22406,Guy Môquet - Etienne Dolet,Malakoff,48.81527009991819,2.298078276995073,7,15
2025-08-20T15:45:23Z,31102,Boissière - Etienne Dolet,Montreuil,48.876111,2.4677312,5,16
2025-08-20T15:45:23Z,18022,Marcadet - Barbès,Paris,48.890451120965,2.3490573929687,4,32
2025-08-20T15:45:23Z,8054,Bertie Albrecht - Hoche,Paris,48.87614039826388,2.301303138307601,1,31
2025-08-20T15:45:23Z,21209,Molière - République,Montrouge,48.81111581390707,2.3145738624448158,7,23
2025-08-20T15:45:23Z,14012,Sibelle - Alésia,Paris,48.826701758539215,2.3384983465075493,0,37
2025-08-20T15:45:23Z,21005,Hôtel de Ville de Boulogne Billancourt,Boulogne-Billancourt,48.83495885166784,2.2416803240776066,10,16
2025-08-20T15:45:23Z,8045,Place de la Reine Astrid,Paris,48.864920982538,2.3025491823859,34,23
2025-08-20T15:45:23Z,44013,Edouard Tremblay - Julian Grimaux,Vitry-sur-Seine,48.781383825117,2.3723508417606,2,28
2025-08-20T15:45:23Z,20131,Repos - Cimetière du Père Lachaise,Paris,48.859358523593,2.3896131366845,6,27
2025-08-20T15:45:23Z,19210,Place des Fêtes - Solitaires,Paris,48.876644633122,2.3920327806309,0,29
2025-08-20T15:45:23Z,21015,Nationale - Place Jules Guesde,Boulogne-Billancourt,48.82753962462998,2.2416052222251897,10,13
2025-08-20T15:45:23Z,44003,Gabriel Péri - Danielle Casanova,Vitry-sur-Seine,48.790114,2.4025777,11,9
2025-08-20T15:45:23Z,15034,Lakanal - Commerce,Paris,48.84442462786544,2.294059172272682,15,37
2025-08-20T15:45:23Z,5028,Censier - Jardin des Plantes,Paris,48.84107178161383,2.355475388467312,17,9
2025-08-20T15:45:23Z,41202,Gare Rer de Fontenay sous Bois,Fontenay-sous-Bois,48.8436279,2.4630465,14,46
2025-08-20T15:45:23Z,42021,Raspail - Manufacture des Oeillets,Ivry-sur-Seine,48.8094458,2.3903009,20,12
2025-08-20T15:45:23Z,1119,Cossonnerie - Sébastopol,Paris,48.86132665908402,2.349419631063938,16,8
2025-08-20T15:45:23Z,35020,Marcelle - Thalie,Pantin,48.8835462,2.4137883,3,17
2025-08-20T15:45:23Z,25003,Henri Ste-Claire Déville - Paul Héroult,Rueil-Malmaison,48.892663,2.172411,19,4
2025-08-20T15:45:23Z,31003,Paris - Emile Zola,Montreuil,48.854898095789295,2.4186685681343083,2,28
2025-08-20T15:45:23Z,11030,Oberkampf - République,Paris,48.86531608707,2.37611478491,14,10
2025-08-20T15:45:23Z,11039,Richard Lenoir - Jean-Pierre Timbaud,Paris,48.865804276686,2.3693370749669,14,22
2025-08-20T15:45:23Z,11026,Chemin Vert - Saint-Maur,Paris,48.86112461407359,2.381299026310444,17,26
2025-08-20T15:45:23Z,32604,Square du Théâtre du Garde-Chasse,Les Lilas,48.881287375060616,2.420119643211365,2,48
2025-08-20T15:45:23Z,19024,Botzaris - Parc des Buttes Chaumont,Paris,48.877951,2.381464,0,20
2025-08-20T15:45:23Z,41601,Général De Gaulle - Alouette,Saint-Mandé,48.839109,2.4175664,7,19
2025-08-20T15:45:23Z,15021,Joseph Liouville - Croix Nivert,Paris,48.844835471244416,2.297508493065834,40,24
2025-08-20T15:45:23Z,11105,Parmentier - République,Paris,48.8644954,2.3750124,4,19
2025-08-20T15:45:23Z,17125,Marie-Georges Picquart - Pereire,Paris,48.88863669349711,2.3111706599593163,7,25
2025-08-20T15:45:23Z,43005,Gare RER de Vincennes,Vincennes,48.847563015126106,2.433383166790009,33,18
2025-08-20T15:45:23Z,16136,Théophile Gautier - François Millet,Paris,48.85034821320644,2.273029983043671,18,12
2025-08-20T15:45:23Z,19032,Villette - Belleville,Paris,48.8726877314,2.376461327076,12,30
2025-08-20T15:45:23Z,16008,Galilée - Kléber,Paris,48.867411865714,2.2907813801148,11,21
2025-08-20T15:45:23Z,19022,Marché Secrétan,Paris,48.88125496379482,2.373463287949562,8,18
2025-08-20T15:45:23Z,13050,Quai Panhard et Levassor,Paris,48.828374828097,2.3842737458056,50,7
2025-08-20T15:45:23Z,24001,Arche - Léonard de Vinci,Courbevoie,48.89790972494496,2.2383723043644914,8,20
2025-08-20T15:45:23Z,14136,Auguste Cain - Jean Moulin,Paris,48.82577028927573,2.3210415244102482,12,28
2025-08-20T15:45:23Z,17028,Reims - Raymond Pitet,Paris,48.8888,2.296319,28,8
2025-08-20T15:45:23Z,19029,Seine - Flandre,Paris,48.886785741479684,2.3746193200349808,3,15
2025-08-20T15:45:23Z,9032,Mathurins - Auber,Paris,48.872988840744,2.3294984212276,18,15
2025-08-20T15:45:23Z,19016,Hautpoul - Jean Jaurès,Paris,48.886393679436,2.3865414544355,5,26
2025-08-20T15:45:23Z,32003,Wilson - Métallurgie,Saint-Denis,48.909423010092326,2.3584435880184174,27,1
2025-08-20T15:45:23Z,11042,Grand Prieuré - Crussol,Paris,48.864660627935,2.3692265531829,39,9
2025-08-20T15:45:23Z,32026,Leroy des Barres - Médiathèque,Saint-Denis,48.928253687082,2.3681719727966,18,8
2025-08-20T15:45:23Z,9005,Square d'Anvers,Paris,48.882633484311,2.3448844062122,4,28
2025-08-20T15:45:23Z,1013,Place du Palais Royal,Paris,48.862382970647,2.3384822532535,61,5
2025-08-20T15:45:23Z,8025,Miromesnil - La Boétie,Paris,48.873722412917,2.3158480972052,10,25
2025-08-20T15:45:23Z,7102,Mairie du 7ème,Paris,48.8577967,2.3192664,26,22
2025-08-20T15:45:23Z,13002,Arago - Glacière,Paris,48.83486054775774,2.3445770524322067,5,21
2025-08-20T15:45:23Z,12204,Prague - Théophile Roussel,Paris,48.850330563516,2.3758223011125,31,0
2025-08-20T15:45:23Z,19013,Laumière - Petit,Paris,48.88467368538326,2.380039058625698,3,31
2025-08-20T15:45:23Z,26013,Quai du docteur Dervaux,Asnières-sur-Seine,48.910482,2.297998,1,24
2025-08-20T15:45:23Z,20111,Villiers de l'Isle Adam - Pyrénées,Paris,48.867362,2.396222,2,18
2025-08-20T15:45:23Z,20043,Charonne - Avron,Paris,48.851602665222,2.3984030470379,9,18
2025-08-20T15:45:23Z,42015,Place Jean Ferrat,Ivry-sur-Seine,48.8184945213025,2.3744174838066106,10,15
2025-08-20T15:45:23Z,32016,Place de la Porte de Paris,Saint-Denis,48.93009363207303,2.3564037680625916,8,31
2025-08-20T15:45:23Z,11004,Charonne - Faubourg Saint-Antoine,Paris,48.852191909696,2.3740932717919,31,1
2025-08-20T15:45:23Z,92008,Hôtel de Ville de Nanterre,Nanterre,48.892371898250424,2.205548956990242,21,17
2025-08-20T15:45:23Z,41402,Victor Hugo - Ecoles,Alfortville,48.80476007936134,2.4180373930262093,7,18
2025-08-20T15:45:23Z,19205,Simon Bolivar - Henri Turot,Paris,48.877475489801,2.3739709492211,1,20
2025-08-20T15:45:23Z,31203,Henri Barbusse,La Courneuve,48.932092978246,2.3982878482409,0,0
2025-08-20T15:45:23Z,9021,Saint Georges - d'Aumale,Paris,48.87778639599673,2.337429821491241,13,9
2025-08-20T15:45:23Z,23009,Anatole France - Louise Michel,Levallois-Perret,48.88873214926474,2.2881576418876652,8,42
2025-08-20T15:45:23Z,8035,Bienfaisance - Place de Narvik,Paris,48.87660163459077,2.3129771277308464,16,19
2025-08-20T15:45:23Z,17102,Alfred Roll - Berthier,Paris,48.887808570529,2.3000952981763,4,23
2025-08-20T15:45:23Z,28001,Richard Wallace - Place du 8 Mai 1945,Puteaux,48.87866794788021,2.2420343756675725,21,7
2025-08-20T15:45:23Z,26007,Square Gilbert Thomain,Asnières-sur-Seine,48.90717373809284,2.2695400938391685,8,11
2025-08-20T15:45:23Z,11007,Jean Macé - Faidherbe,Paris,48.85337548426,2.3828620836139,48,15
2025-08-20T15:45:23Z,18110,Departement - Pajol,Paris,48.886674849730184,2.3613611608743668,3,16
2025-08-20T15:45:23Z,19005,Flandre - Riquet,Paris,48.888013281448,2.3737595955229,6,13
2025-08-20T15:45:23Z,10113,Parmentier - Hôpital Saint-Louis,Paris,48.871379874257,2.3698963836667,4,39
2025-08-20T15:45:23Z,17045,Place des Ternes.,Paris,48.878438631226516,2.297727763652802,5,40
2025-08-20T15:45:23Z,43402,Place de Verdun,Joinville-le-Pont,48.8202823,2.473775,33,5
2025-08-20T15:45:23Z,33018,Edouard Poisson - Victor Hugo,Aubervilliers,48.91118557052621,2.379864752692811,11,19
2025-08-20T15:45:23Z,16111,Faustin Hélie - Desbordes-Valmore,Paris,48.859403,2.276522,12,20
2025-08-20T15:45:23Z,5021,Jussieu - Fossés Saint-Bernard,Paris,48.847185510023,2.3534858599305,37,0
2025-08-20T15:45:23Z,6013,Jacques Callot - Mazarine,Paris,48.855280175332,2.3375743255019,9,19
2025-08-20T15:45:23Z,21305,Place Jacques Madaule,Issy-les-Moulineaux,48.823933787309,2.2606918215752,14,11
2025-08-20T15:45:23Z,18204,Porte de la Chapelle - Boulevard Ney,Paris,48.900097357789,2.3586005020149,6,46
2025-08-20T15:45:23Z,8033,Commandant Rivière,Paris,48.872933,2.309796,32,8
2025-08-20T15:45:23Z,16121,Jardin d'Acclimatation,Paris,48.878772242510465,2.270772233605385,16,15
2025-08-20T15:45:23Z,23001,Paul Vaillant Couturier - Chaptal,Levallois-Perret,48.893479576183,2.2775253653526,18,21
2025-08-20T15:45:23Z,17037,Bayen - Pereire,Paris,48.881804409079656,2.2921088710427284,6,15
2025-08-20T15:45:23Z,5106,Cujas - Saint-Michel,Paris,48.848191348584,2.341831654854,0,19
2025-08-20T15:45:23Z,16124,Route de Sèvres - Porte de Bagatelle,Paris,48.87525984132485,2.249415814876557,18,47
2025-08-20T15:45:23Z,33003,Bordier - Félix Faure,Aubervilliers,48.90390751882016,2.3830059170722966,6,42
2025-08-20T15:45:23Z,33009,Félix Faure - Sadi Carnot,Aubervilliers,48.90812110228388,2.378623187541962,9,24
2025-08-20T15:45:23Z,14034,Ouest - Château,Paris,48.83617286014242,2.319392143923804,2,19
2025-08-20T15:45:23Z,32010,Place aux Étoiles,Saint-Denis,48.91835629408464,2.3523425683379173,8,32
2025-08-20T15:45:23Z,15033,Place Violet,Paris,48.84487893836502,2.2905756533145905,17,11
2025-08-20T15:45:23Z,25008,Place du 8 Mai 1945,Rueil-Malmaison,48.871552174017,2.2025031970585,1,17
2025-08-20T15:45:23Z,24002,Gare de Courbevoie,Courbevoie,48.8993867,2.2506506,28,6
2025-08-20T15:45:23Z,33001,Victor Hugo - Magasins Généraux,Aubervilliers,48.903281401126755,2.368072383105755,9,25
2025-08-20T15:45:23Z,16034,Porte d'Auteuil,Paris,48.8479394142243,2.2608396783471107,6,26
2025-08-20T15:45:23Z,41404,Carnot - Pâquerettes,Alfortville,48.79592939432515,2.4261841177940373,14,12
2025-08-20T15:45:23Z,7009,Assemblée Nationale,Paris,48.861411014652,2.3201214185208,18,58
2025-08-20T15:45:23Z,20132,Réunion - Avron,Paris,48.852566752033766,2.403928068708116,2,23
2025-08-20T15:45:23Z,8055,Courcelles - Place des Ternes,Paris,48.878199928923124,2.2992860188665043,7,24
2025-08-20T15:45:23Z,27002,Parc Pierre Lagravère,Colombes,48.92650488131725,2.239069678491417,13,15
2025-08-20T15:45:23Z,21502,Verdun - Place Henri IV,Suresnes,48.870797375639214,2.2277003154158592,12,13
2025-08-20T15:45:23Z,35019,Anatole France - Jean Lolive,Pantin,48.8949922,2.4253764,7,19
2025-08-20T15:45:23Z,31705,Champeaux - Gallieni,Bagnolet,48.864459134684644,2.4161778017878532,3,47
2025-08-20T15:45:23Z,23802,Raymond Poincaré - Allée de la Marche,Garches,48.838634069623,2.1724102640451,3,20
2025-08-20T15:45:23Z,20036,Ménilmontant - Pelleport,Paris,48.870682633845,2.3989596023316,2,30
2025-08-20T15:45:23Z,15017,Place Falguière,Paris,48.83629973941847,2.3104464635252953,6,16
2025-08-20T15:45:23Z,17018,Parc Monceau,Paris,48.881077914129,2.3095492646098,3,14
2025-08-20T15:45:23Z,18005,Tardieu - Chappe,Paris,48.884146759782,2.341845408082,3,15
2025-08-20T15:45:23Z,26001,Gare d'Asnières sur Seine,Asnières-sur-Seine,48.90636459217474,2.2835066914558415,13,10
2025-08-20T15:45:23Z,5002,Sommerard - Saint-Jacques,Paris,48.850310432924466,2.345015835298588,22,12
2025-08-20T15:45:23Z,31702,Pierre et Marie Curie - Julien Grimau,Bagnolet,48.870714014863225,2.424097023904324,0,17
2025-08-20T15:45:23Z,7004,Raspail - Varenne,Paris,48.853147816545,2.3263905197382,12,6
2025-08-20T15:45:23Z,21111,Professeur René Leriche - Général Leclerc,Clichy,48.90782845483013,2.307887971401215,8,42
2025-08-20T15:45:23Z,2010,Uzès - Montmartre,Paris,48.870790980240706,2.3431010171771054,22,6
2025-08-20T15:45:23Z,11114,Ledru-Rollin - Charonne,Paris,48.85345855607243,2.3772463581947094,28,2
2025-08-20T15:45:23Z,7006,Quai Voltaire,Paris,48.858942986179,2.3314182047146,14,17
2025-08-20T15:45:23Z,8012,Batignolles - Place de Clichy,Paris,48.883474535757,2.326493114233,4,43
2025-08-20T15:45:23Z,20040,Parc de Belleville - Julien Lacroix,Paris,48.8703459,2.3842214,2,24
2025-08-20T15:45:23Z,17017,Gare de Pont-Cardinet,Paris,48.88713901475306,2.314494143994255,1,33
2025-08-20T15:45:23Z,34002,Capitaine Glarner - Gabriel Péri,Saint-Ouen-sur-Seine,48.902449900418745,2.3304807533425724,4,23
2025-08-20T15:45:23Z,13026,Place Jean Delay,Paris,48.823316,2.354336,4,30
2025-08-20T15:45:23Z,14139,Pierre Larousse - Raymond Losserand,Paris,48.83059564231877,2.3119183257222176,2,27
2025-08-20T15:45:23Z,13102,Pitié-Salpêtrière,Paris,48.83748810318667,2.365213818848133,43,8
2025-08-20T15:45:23Z,11101,Charles Delescluze,Paris,48.85242200848887,2.380632497370243,32,16
2025-08-20T15:45:23Z,41207,Place du Général de Gaulle,Fontenay-sous-Bois,48.8525288,2.4877332,19,9
2025-08-20T15:45:23Z,12011,Charenton - Place du Col Bourgoin,Paris,48.844867319554,2.3825789350545,26,8
2025-08-20T15:45:23Z,12032,Porte Dorée,Paris,48.8354337,2.4077132,7,27
2025-08-20T15:45:23Z,6103,Mézières - Rennes,Paris,48.85023459321703,2.3303819820284843,3,52
2025-08-20T15:45:23Z,15038,Place Adolphe Cherioux - Vaugirard,Paris,48.83959442800459,2.3010657727718353,5,56
2025-08-20T15:45:23Z,20021,Indre - Prairies,Paris,48.86254398506782,2.403290458023548,0,37
2025-08-20T15:45:23Z,7005,Raspail - Bac,Paris,48.855628721101,2.3256602883339,20,32
2025-08-20T15:45:23Z,6018,Michelet - Assas,Paris,48.842741502832,2.3350211977959,1,17
2025-08-20T15:45:23Z,27008,Labouret - Saint-Denis,Colombes,48.924066621513,2.2539156570765,7,15
2025-08-20T15:45:23Z,19109,Tanger - Place du Maroc,Paris,48.8862524447104,2.3689296841621403,4,15
2025-08-20T15:45:23Z,31019,Vincennes - Douy-Delcupe,Montreuil,48.85493692155721,2.436049282550812,5,33
2025-08-20T15:45:23Z,32014,Place du Cornillon - Stade de France,Saint-Denis,48.92540695835961,2.3644426837563515,19,15
2025-08-20T15:45:23Z,17124,Porte de Saint-Ouen - Henri Huchard,Paris,48.898708366365064,2.3295360803604126,7,19
2025-08-20T15:45:23Z,44012,Génie - Mozart,Vitry-sur-Seine,48.794902381218904,2.3734183609485626,2,17
2025-08-20T15:45:23Z,31016,Lucie Aubrac - Franklin,Montreuil,48.86223916006812,2.4435862898826604,3,32
2025-08-20T15:45:23Z,13016,Primo Levi - Frigos,Paris,48.83094844846017,2.37965351592796,34,0
2025-08-20T15:45:23Z,2009,Filles Saint-Thomas - Place de la Bourse,Paris,48.868899890853,2.3397543845203,31,26
2025-08-20T15:45:23Z,9115,Milton - Manuel,Paris,48.878249,2.341181,0,22
2025-08-20T15:45:23Z,19039,Edouard Pailleron - Simon Bolivar,Paris,48.87979886049996,2.374839261174202,4,20
2025-08-20T15:45:23Z,21003,Jean Jaurès - Jean Baptiste Clément,Boulogne-Billancourt,48.84576261454011,2.2369650006294255,14,25
2025-08-20T15:45:23Z,22001,Château - Bineau,Neuilly-sur-Seine,48.890404028589806,2.270106375217438,8,15
2025-08-20T15:45:23Z,17122,Bridaine - Lamandé,Paris,48.8862074,2.3206239,1,28
2025-08-20T15:45:23Z,14122,Colonel Monteil - Brune,Paris,48.82650293311,2.3092747998272,3,16
2025-08-20T15:45:23Z,31007,Paris - Désiré Préaux,Montreuil,48.85742876694898,2.4323049187660217,17,32
2025-08-20T15:45:23Z,15108,Lourmel - Marie Skobtsov,Paris,48.844974,2.287283,21,0
2025-08-20T15:45:23Z,6016,Danton - Serpente,Paris,48.852297362582,2.3414132371545,18,4
2025-08-20T15:45:23Z,17121,Square des Epinettes,Paris,48.89383909781389,2.325953990221024,9,11
2025-08-20T15:45:23Z,18029,Emile Blemont - Poteau,Paris,48.8943782,2.3415122,4,34
2025-08-20T15:45:23Z,21703,Square du Carrefour de l'Insurrection,Vanves,48.820864559770676,2.291113436222077,4,19
2025-08-20T15:45:23Z,35017,Toffier Decaux - Cartier Bresson,Pantin,48.90165072551549,2.4017545580863957,2,16
2025-08-20T15:45:23Z,20118,Orteaux - Mouraud,Paris,48.85558642847872,2.408762907764669,2,22
2025-08-20T15:45:23Z,14002,Edgar Quinet - Raspail,Paris,48.83940266673835,2.32971478253603,12,34
2025-08-20T15:45:23Z,31703,Sadi Carnot - François Mitterrand,Bagnolet,48.87532687671517,2.4241617321968083,1,25
2025-08-20T15:45:23Z,15031,Théâtre - Lourmel,Paris,48.8482070397636,2.2898658737540245,25,27
2025-08-20T15:45:23Z,5121,Square René Viviani - Montebello,Paris,48.851904891406,2.3478421568871,5,27
2025-08-20T15:45:23Z,11006,Ledru-Rollin - Place du Père Chaillet,Paris,48.856433706943704,2.379020587761426,11,24
2025-08-20T15:45:23Z,14112,Méchain - Faubourg Saint-Jacques,Paris,48.83586772099485,2.33798034198275,1,15
2025-08-20T15:45:23Z,47004,Stade Auguste Delaune,Maisons-Alfort,48.80896378683884,2.4345204234123234,16,5
2025-08-20T15:45:23Z,21001,Transvaal - Charles de Gaulle,Boulogne-Billancourt,48.848280403628806,2.2373420120857195,7,20
2025-08-20T15:45:23Z,18033,Belliard - Damrémont,Paris,48.89669238777841,2.338023450388167,6,28
2025-08-20T15:45:23Z,11010,Boulets - Faubourg Saint-Antoine,Paris,48.849259262115,2.3917546141943,5,38
2025-08-20T15:45:23Z,20016,Pyrénées - Maraîchers,Paris,48.85714001395299,2.4043509364128113,1,32
2025-08-20T15:45:23Z,32015,Gare RER de Saint-Denis,Saint-Denis,48.93554324248177,2.3471488058567047,9,30
2025-08-20T15:45:23Z,10010,Place Jacques Bonsergent,Paris,48.870948218595,2.3612049221992,21,10
2025-08-20T15:45:23Z,16043,Place de Passy,Paris,48.85780291711202,2.277500546942199,1,13
2025-08-20T15:45:23Z,16027,Mozart - Jasmin,Paris,48.85286124871689,2.268483570651513,3,58
2025-08-20T15:45:23Z,18008,Square Léon,Paris,48.88667396788626,2.353205569088459,1,32
2025-08-20T15:45:23Z,16112,Chernoviz - Raynouard,Paris,48.8569864146289,2.282173218142987,1,36
2025-08-20T15:45:23Z,42703,Fontainebleau - Edmond Michelet,Le Kremlin-Bicêtre,48.80956436844049,2.3626908659935,9,36
2025-08-20T15:45:23Z,14030,Pernety - Raymond Losserand,Paris,48.834254627953,2.317609339387,4,27
2025-08-20T15:45:23Z,13046,Eugène Oudiné - Dessous Des Berges,Paris,48.8256423,2.3750226,41,2
2025-08-20T15:45:23Z,22102,Mont Valérien - Michel Salles,Saint-Cloud,48.8561915,2.2152966,9,15
2025-08-20T15:45:23Z,17022,Pereire - Place de Wagram,Paris,48.887070607581215,2.304111124531457,3,43
2025-08-20T15:45:23Z,10036,Aqueduc - Villette,Paris,48.883886063895,2.367198803315,2,22
2025-08-20T15:45:23Z,9101,Cadet - La Fayette,Paris,48.875601632672,2.3435704037547,16,3
2025-08-20T15:45:23Z,19041,Belleville - Pyrénées,Paris,48.8741908,2.3860039,0,42
2025-08-20T15:45:23Z,13103,Hôpital Pitié Salpêtrière,Paris,48.8377016,2.3604946,8,42
2025-08-20T15:45:23Z,13010,Place d'Italie - Vincent Auriol,Paris,48.831481874467,2.3567550292319,11,27
2025-08-20T15:45:23Z,4013,Vieille du Temple - Francs Bourgeois,Paris,48.858256413365815,2.35821794718504,21,6
2025-08-20T15:45:23Z,31023,Place François Mitterand,Montreuil,48.86492782016328,2.442958317697048,1,33
2025-08-20T15:45:23Z,10163,Gare du Nord - Demarquay,Paris,48.881154,2.358411,2,28
2025-08-20T15:45:23Z,19023,Manin - Simon Bolivar,Paris,48.876499654127,2.3794073625991,3,20
2025-08-20T15:45:23Z,20019,Place du Maquis du Vercors,Paris,48.877321579493575,2.4083782732486725,0,31
2025-08-20T15:45:23Z,18137,Poissonniers - Nord,Paris,48.892511213520656,2.3522228747606277,3,25
2025-08-20T15:45:23Z,7101,Raspail - Chomel,Paris,48.852233164303,2.3266580700874,15,33
2025-08-20T15:45:23Z,18138,Station Paris Basketball - Ney - Charles Hermite,Paris,48.898748039775,2.3645754531026,9,10
2025-08-20T15:45:23Z,17116,Reims - Porte d'Asnières,Paris,48.891834448210986,2.300144659954865,20,6
2025-08-20T15:45:23Z,7016,Surcouf - Université,Paris,48.861273016278,2.3094535509142,27,27
2025-08-20T15:45:23Z,12041,Bois de Vincennes.,Saint-Mandé,48.8338064,2.4132221,20,40
2025-08-20T15:45:23Z,12108,Bercy.,Paris,48.839966914994,2.3788625746965,61,2
2025-08-20T15:45:23Z,7013,Duroc - Place de Breteuil,Paris,48.847460641142,2.3126140236855,12,30
2025-08-20T15:45:23Z,21311,Parvis Corentin Celton,Issy-les-Moulineaux,48.827472525227,2.2784319519997,39,16
2025-08-20T15:45:23Z,31013,Centenaire - Sorins,Montreuil,48.85853523359734,2.4273508787155156,20,24
2025-08-20T15:45:23Z,17016,Brochant - Square des Batignolles,Paris,48.88818698581028,2.316861143151153,2,27
2025-08-20T15:45:23Z,15020,Mairie du 15ème,Paris,48.8417762,2.2986539,9,23
2025-08-20T15:45:23Z,41206,Place des Larris,Fontenay-sous-Bois,48.8568363,2.4780236,19,15
2025-08-20T15:45:23Z,13113,Vistule - Choisy,Paris,48.82365543660611,2.3615723848342896,7,25
2025-08-20T15:45:23Z,19031,Manin - Crimée,Paris,48.8831217743719,2.3863670602440834,3,20
2025-08-20T15:45:23Z,13114,Nationale - Marcel Duchamp,Paris,48.82463749337136,2.3678014799952507,4,19
2025-08-20T15:45:23Z,15061,Square Desnouettes,Paris,48.83476837934194,2.284142297394666,12,10
2025-08-20T15:45:23Z,23008,Hôtel de Ville de Levallois Perret,Levallois-Perret,48.89314451997415,2.2888818383216862,7,18
2025-08-20T15:45:23Z,31018,Gambetta - Michelet,Montreuil,48.85273792380526,2.429966032505036,2,31
2025-08-20T15:45:23Z,2110,Jeûneurs - Mulhouse,Paris,48.868997,2.346925,23,5
2025-08-20T15:45:23Z,7026,Place de Finlande,Paris,48.862408335967,2.3113624379039,11,14
2025-08-20T15:45:23Z,9113,Bleue - Trévise,Paris,48.87578906564573,2.347289621829987,11,19
2025-08-20T15:45:23Z,20103,Le Vau - Maurice Bertaux,Paris,48.86803439043193,2.411030612453627,3,22
2025-08-20T15:45:23Z,2014,Daunou - Louis le Grand,Paris,48.869113,2.332515,26,6
2025-08-20T15:45:23Z,4109,Mornay - Sully,Paris,48.84970399548416,2.364460788667202,9,5
2025-08-20T15:45:23Z,11048,Place Mireille Havet,Paris,48.850533,2.383756,31,9
2025-08-20T15:45:23Z,12154,Square Georges Melies,Paris,48.84070239213081,2.409667745232582,7,30
2025-08-20T15:45:23Z,22017,Charles de Gaulle - Louis Philippe,Neuilly-sur-Seine,48.881742142181,2.2710045335353,7,21
2025-08-20T15:45:23Z,17104,Jardin Marguerite Long,Paris,48.8816985773914,2.2836575657129288,4,17
2025-08-20T15:45:23Z,21004,Jean Jaurès - Reine,Boulogne-Billancourt,48.84009622558849,2.239872515201569,7,24
2025-08-20T15:45:23Z,22002,Argenson - Château,Neuilly-sur-Seine,48.888559314669514,2.2642001509666447,3,22
2025-08-20T15:45:23Z,13022,Butte aux Cailles - Esperance,Paris,48.82758774190948,2.3492151126265526,6,26
2025-08-20T15:45:23Z,20045,Louis Ganne - Davout,Paris,48.86338720692607,2.409725748002529,4,25
2025-08-20T15:45:23Z,13019,Fernand Braudel - Vincent Auriol,Paris,48.83637852318147,2.3723404482007027,35,1
2025-08-20T15:45:23Z,11044,Square du Bataclan,Paris,48.8633762,2.3711327,12,7
2025-08-20T15:45:23Z,16041,Versailles - Claude Terrasse,Paris,48.840219338074,2.263834191153,12,34
2025-08-20T15:45:23Z,9015,Lamartine - Faubourg Montmartre,Paris,48.876613982891,2.3397656902671,6,26
2025-08-20T15:45:23Z,8029,Place du Canada,Paris,48.865346269363,2.3101937879648,24,33
2025-08-20T15:45:23Z,11110,Roquette - Folie Regnault,Paris,48.859246959155485,2.386553623578705,11,40
2025-08-20T15:45:23Z,16031,Vignes - Boulainvilliers,Paris,48.856399483950504,2.275240458548069,3,18
2025-08-20T15:45:23Z,12153,Terroirs de France - Lheureux,Paris,48.83212027074841,2.388618104159832,48,7
2025-08-20T15:45:23Z,14127,Odessa - Départ,Paris,48.842885590081,2.3244281485677,12,27
2025-08-20T15:45:23Z,12033,François Truffaut - Saint Emilion,Paris,48.83372354344807,2.386601903271428,63,2
2025-08-20T15:45:23Z,12120,Lac Daumesnil - Saint-Maurice,Paris,48.82774555743318,2.4183654785156246,0,50
2025-08-20T15:45:23Z,18035,René Binet - Porte de Montmartre,Paris,48.89905109950848,2.3365534096956253,11,25
2025-08-20T15:45:23Z,23005,Gare de Clichy-Levallois,Levallois-Perret,48.89679827481989,2.2984680533409123,17,7
2025-08-20T15:45:23Z,20117,Saint-Fargeau - Mortier,Paris,48.87266656122256,2.407912909984589,3,28
2025-08-20T15:45:23Z,44103,Pont De Charenton,Saint-Maurice,48.8179685,2.4199531,12,6
2025-08-20T15:45:23Z,4107,Beaumarchais - Pas de la Mule,Paris,48.855580507049,2.3684333673431,16,0
2025-08-20T15:45:23Z,22403,Pierre Brossolette - Adolphe Pinard,Malakoff,48.821772279548,2.3131558299065,10,13
2025-08-20T15:45:23Z,20047,Cours de Vincennes - Davout,Paris,48.847238029966,2.4107042336225,6,41
2025-08-20T15:45:23Z,18114,Véron - Lepic,Paris,48.885261233953,2.3345598578453,7,15
2025-08-20T15:45:23Z,21951,Place Centrale,Meudon,48.78740167690531,2.2278830409049992,5,17
2025-08-20T15:45:23Z,92005,Gare de Nanterre Ville,Nanterre,48.8950295,2.1957932,27,16
2025-08-20T15:45:23Z,10039,Sambre et Meuse - Villette,Paris,48.874405666217,2.3738072379951,8,17
2025-08-20T15:45:23Z,19036,Hôpital Robert Debré,Paris,48.88005222200894,2.4008650346327003,1,31
2025-08-20T15:45:23Z,31707,Edouard Vaillant - Galliéni,Bagnolet,48.858462881661,2.4147954583168,7,42
2025-08-20T15:45:23Z,8011,Clapeyron - Moscou,Paris,48.88078819514121,2.324815057218075,4,10
2025-08-20T15:45:23Z,14113,Santé - Arago,Paris,48.83507657562064,2.3415737262044938,5,33
2025-08-20T15:45:23Z,35015,Averroès - Aimé Césaire,Pantin,48.91405323432864,2.412636950612068,10,9
2025-08-20T15:45:23Z,15019,Paul Barruel - Vaugirard,Paris,48.84014918546239,2.3044332861900334,3,33
2025-08-20T15:45:23Z,7024,Rapp - Place du Général Gouraud,Paris,48.858102885107,2.3004072904587,29,2
2025-08-20T15:45:23Z,20004,Commandant l'Herminier - Gallieni,Paris,48.847040552603,2.4160453677177,6,11
2025-08-20T15:45:23Z,12150,Bastille - Quai de la Rapée,Paris,48.84682410855,2.3669364675879,24,1
2025-08-20T15:45:23Z,11031,Jacquard - Ternaux,Paris,48.8646605,2.373162,18,19
2025-08-20T15:45:23Z,13515,Auguste Blanqui - Glacière,Paris,48.831151602964,2.343822196126,19,40
2025-08-20T15:45:23Z,9036,Athènes - Clichy,Paris,48.878113787876,2.32956021945824,2,18
2025-08-20T15:45:23Z,15125,Parc Suzanne Lenglen,Paris,48.833250690537874,2.2765403240919113,48,4
2025-08-20T15:45:23Z,13027,Mazagran - Pierre de Coubertin,Paris,48.816218640260445,2.344226874411106,11,3
2025-08-20T15:45:23Z,17029,Pierre Demours - Laugier,Paris,48.8813072,2.294846,4,33
2025-08-20T15:45:23Z,10004,Metz - Faubourg Saint-Denis,Paris,48.870893,2.353521,39,5
2025-08-20T15:45:23Z,5034,Censier - Santeuil,Paris,48.840658921385234,2.3537524044513702,45,23
2025-08-20T15:45:23Z,10017,Gare de l'Est - Fidélité,Paris,48.874575,2.356796,9,6
2025-08-20T15:45:23Z,21029,Cours de l'Ile Seguin - Parc Billancourt,Boulogne-Billancourt,48.82714055843935,2.234234511852265,4,23
2025-08-20T15:45:23Z,16003,André Maurois - Joseph et Marie Hackin,Paris,48.8778983,2.2789591,10,20
2025-08-20T15:45:23Z,12006,Gare de Lyon - Van Gogh,Paris,48.843839785643,2.3704450240357,40,1
2025-08-20T15:45:23Z,16007,Longchamp - Place d'Iéna,Paris,48.864917233434,2.2926748171449,8,2
2025-08-20T15:45:23Z,22013,Mairie de Neuilly sur Seine,Neuilly-sur-Seine,48.884947287658,2.2677031159401,13,18
2025-08-20T15:45:23Z,10110,Louis Blanc - Jemmapes,Paris,48.879330755297,2.3684485629201,4,25
2025-08-20T15:45:23Z,21708,Marcel Yol - Jullien,Vanves,48.82537611802588,2.287235018058929,2,28
2025-08-20T15:45:23Z,21307,Victor Cresson - Telles de la Poterie,Issy-les-Moulineaux,48.822698842979,2.2686498274964,17,14
2025-08-20T15:45:23Z,41210,Hôtel de ville de Fontenay-sous-Bois,Fontenay-sous-Bois,48.84949749106274,2.4750164151191716,1,19
2025-08-20T15:45:23Z,21702,Gare SNCF Vanves-Malakoff,Vanves,48.819002163836444,2.292150005103606,11,39
2025-08-20T15:45:23Z,11109,Pierre Levée - Fontaine Timbaud,Paris,48.86632723374305,2.3711163550615306,10,12
2025-08-20T15:45:23Z,15052,Convention - Vaugirard,Paris,48.83767682233156,2.295586926020252,7,41
2025-08-20T15:45:23Z,31021,Résistance - Hoche,Montreuil,48.864273423741956,2.435784414410591,2,27
2025-08-20T15:45:23Z,44002,Paul Vaillant-Couturier - Gare RER,Vitry-sur-Seine,48.80108159069614,2.402097210288048,17,9
2025-08-20T15:45:23Z,16115,Raffet - Montmorency,Paris,48.85258670812,2.2629252456151954,8,33
2025-08-20T15:45:23Z,21030,Fessart - Château,Boulogne-Billancourt,48.84245,2.23989,8,12
2025-08-20T15:45:23Z,16024,Ranelagh - Maison de la Radio,Paris,48.85293603169479,2.280449643731117,16,6
2025-08-20T15:45:23Z,15043,Brancion - Lefebvre,Paris,48.82900222785569,2.301431038163409,3,8
2025-08-20T15:45:23Z,17039,Place Saint-Ferdinand,Paris,48.87815529789739,2.288518047864942,8,30
2025-08-20T15:45:23Z,22604,Hôtel de Ville de Fontenay-aux-Roses,Fontenay-aux-Roses,48.790844603480856,2.2871455930319455,1,31
2025-08-20T15:45:23Z,11032,Jean-Pierre Timbaud - Vaucouleurs,Paris,48.867937,2.377885,9,36
2025-08-20T15:45:23Z,16101,Malakoff - Place de la Porte Maillot,Paris,48.876733496638,2.2834577411413,7,20
2025-08-20T15:45:23Z,13121,Bruneseau - Quai d'Ivry,Ivry-sur-Seine,48.824945637583,2.3885661363602,35,10
2025-08-20T15:45:23Z,8001,Petit Palais,Paris,48.8667692,2.3157655,25,20
2025-08-20T15:45:23Z,13048,Wurtz - Tolbiac,Paris,48.82631195621,2.344585955143,15,12
2025-08-20T15:45:23Z,4003,Quai aux Fleurs - Pont Saint-Louis,Paris,48.852915956209,2.3521957173944,18,2
2025-08-20T15:45:23Z,21219,Amaury Duval - Gabriel Péri,Montrouge,48.81718759671675,2.323841750621796,2,33
2025-08-20T15:45:23Z,4001,Arcole - Notre-Dame,Paris,48.853883541328,2.3493797332048,23,7
2025-08-20T15:45:23Z,31025,Paul Signac - Aristide Briand,Montreuil,48.86950262156371,2.4502260982990265,1,34
2025-08-20T15:45:23Z,23902,Gallieni - Lycée Charles Petitet,Villeneuve-la-Garenne,48.927640283627,2.3308986340524,10,32
2025-08-20T15:45:23Z,14101,Gare Montparnasse - Edgar Quinet,Paris,48.841487851079,2.3233232282801,17,16
2025-08-20T15:45:23Z,17015,Place de Lévis,Paris,48.883546851533254,2.3131933808326726,2,46
2025-08-20T15:45:23Z,42003,Place de l'Insurrection d'Août 1944,Ivry-sur-Seine,48.81477852751594,2.398074567317963,22,8
2025-08-20T15:45:23Z,40009,Lycée Saint Exupéry - Juliette Savar,Créteil,48.783021513972,2.4637357216879,8,22
2025-08-20T15:45:23Z,12043,Daumesnil - Hébrard,Paris,48.8429,2.38474,3,37
2025-08-20T15:45:23Z,14131,Jourdan - Monticelli,Paris,48.822032,2.329095,3,27
2025-08-20T15:45:23Z,17023,Porte d'Asnières,Paris,48.89035817610495,2.3036286234855656,8,28
2025-08-20T15:45:23Z,19108,Gaston Tessier - Rosa Parks RER,Paris,48.8963765,2.3743692,5,32
2025-08-20T15:45:23Z,44007,Camille Groult - Guy Môquet,Vitry-sur-Seine,48.787482746521306,2.3976725712418556,18,4
2025-08-20T15:45:23Z,4002,Marché aux fleurs,Paris,48.855258115391,2.3473754525185,7,15
2025-08-20T15:45:23Z,42501,Raspail - Albert Schweitzer,Gentilly,48.81031545,2.34395871,18,9
2025-08-20T15:45:23Z,13109,Brillat-Savarin - Küss,Paris,48.822203,2.350422,13,8
2025-08-20T15:45:23Z,21204,Estienne d'Orves - Henri Ginoux,Montrouge,48.815388220397274,2.320886790760933,4,26
2025-08-20T15:45:23Z,11021,Charonne - Pierre Bayle,Paris,48.858445054262,2.3903981223891,1,22
2025-08-20T15:45:23Z,21217,Louis Rolland - République,Montrouge,48.81710889740748,2.3193106434955717,1,24
2025-08-20T15:45:23Z,9114,Faubourg Poissonnière - Dunkerque,Paris,48.880883445404436,2.349934279918671,2,26
2025-08-20T15:45:23Z,16011,Victor Hugo - La Pompe,Paris,48.86795222470859,2.28146318346262,9,31
2025-08-20T15:45:23Z,12007,Gare de Lyon - Chalon,Paris,48.845666194202,2.3741452395916,45,0
2025-08-20T15:45:23Z,35007,Benjamin Delessert - Jean Lolive,Pantin,48.89392043619345,2.417981922626496,2,19
2025-08-20T15:45:23Z,47001,Place de la Gare,Maisons-Alfort,48.80253358011283,2.4275037646293645,41,4
2025-08-20T15:45:23Z,44101,Place Mongolfier,Saint-Maurice,48.815160030060376,2.4592879414558415,30,8
2025-08-20T15:45:23Z,10165,Gare de l'Est - Place du 11 Novembre 1918,Paris,48.876327,2.3585464,20,19
2025-08-20T15:45:23Z,14010,Jean Moulin - Place Victor et Hélène Basch,Paris,48.82764910241,2.3261967301369,10,31
2025-08-20T15:45:23Z,18003,Cimetière de Montmartre,Paris,48.886472466142,2.3328901827335,8,35
2025-08-20T15:45:23Z,17107,Berthier - Place Stuart Merril,Paris,48.885927922355044,2.2933450341224675,6,31
2025-08-20T15:45:23Z,23010,Voltaire - Anatole France,Levallois-Perret,48.891999360256904,2.284262739121914,4,19
2025-08-20T15:45:23Z,18006,Square Louise Michel,Paris,48.884687354509,2.3441386967897,4,31
2025-08-20T15:45:23Z,21401,Mairie de Clamart,Clamart,48.800612,2.262151,2,29
2025-08-20T15:45:23Z,4020,Place Edmond Michelet,Paris,48.860134890542,2.3500636965036,22,0
2025-08-20T15:45:23Z,15022,Emile Zola - Fondary,Paris,48.847051143113745,2.2953405976295476,27,14
2025-08-20T15:45:23Z,23004,Paul Vaillant-Couturier - Victor Hugo,Levallois-Perret,48.89819702263572,2.293848017974069,10,26
2025-08-20T15:45:23Z,22408,Place du 14 Juillet,Malakoff,48.819266959525,2.3011998832226,3,17
2025-08-20T15:45:23Z,11017,Charonne - Bureau,Paris,48.854176,2.396093,1,46
2025-08-20T15:45:23Z,21306,Place Lafayette,Issy-les-Moulineaux,48.829654975522,2.2638675570488,38,21
2025-08-20T15:45:23Z,1021,Halles - Bourdonnais,Paris,48.860448992575,2.3460162431002,15,5
2025-08-20T15:45:23Z,33015,Charles Tillon - Cimetière Communal,Aubervilliers,48.91844023641836,2.3935630917549138,24,6
2025-08-20T15:45:23Z,7017,La Motte-Picquet - La Tour Maubourg,Paris,48.856926701847,2.3096215831203,18,22
2025-08-20T15:45:23Z,22015,Île de la Jatte,Neuilly-sur-Seine,48.894036161302104,2.2666339203715324,4,19
2025-08-20T15:45:23Z,12018,Saint-Mandé - Fabre d'Eglantine,Paris,48.8453579,2.3965022,9,23
2025-08-20T15:45:23Z,17119,Toqueville - Cardinet,Paris,48.88490187110713,2.3109393194317818,6,27
2025-08-20T15:45:23Z,12026,Place Ginette Hamelin,Paris,48.837853,2.382064,42,9
2025-08-20T15:45:23Z,10162,Alexandre Parodi - Quai de Valmy,Paris,48.879359419425,2.3665961623192,3,21
2025-08-20T15:45:23Z,13009,Auguste Blanqui - Corvisart,Paris,48.8300989,2.3502726,4,22
2025-08-20T15:45:23Z,15071,Suffren - Champ de Mars,Paris,48.8547194,2.2952168,22,0
2025-08-20T15:45:23Z,8201,Arsène Houssaye - Friedland,Paris,48.874510616163,2.2994716674148,3,26
2025-08-20T15:45:23Z,15311,Quai du Président Roosevelt - Pont Aval,Paris,48.834388367639,2.2656820714474,23,7
2025-08-20T15:45:23Z,92006,Place Nelson Mandela,Nanterre,48.897874318180556,2.2182820737361912,8,20
2025-08-20T15:45:23Z,12005,Crozatier - Faubourg Saint-Antoine,Paris,48.850440013405,2.378901366211,22,18
2025-08-20T15:45:23Z,9011,Geoffroy - Marie,Paris,48.873781940593325,2.344513876337893,12,8
2025-08-20T15:45:23Z,12035,Madagascar - Meuniers,Paris,48.83460464474706,2.3970650508999825,8,37
2025-08-20T15:45:23Z,10021,Marché Saint-Quentin,Paris,48.877356057652,2.3545114456374,4,11
2025-08-20T15:45:23Z,5115,Buffon - Jardin des Plantes,Paris,48.842668466104875,2.3618587106466293,27,3
2025-08-20T15:45:23Z,41211,Louis Xavier de Ricard - Ancienne Mairie,Fontenay-sous-Bois,48.84629899065091,2.472420372068882,7,27
2025-08-20T15:45:23Z,44011,Lebrun - Colonel Fabien,Vitry-sur-Seine,48.78266870733145,2.381317801773548,12,14
2025-08-20T15:45:23Z,21707,Square Etienne Jarousse,Vanves,48.82485182597129,2.2925933450460434,0,22
2025-08-20T15:45:23Z,4019,Cloître Saint-Merri - Renard,Paris,48.858835448898,2.3518279194832,28,4
2025-08-20T15:45:23Z,51001,Gare d'Argenteuil,Argenteuil,48.947022436806705,2.256898172199726,10,27
2025-08-20T15:45:23Z,8027,Mairie du 8ème,Paris,48.877932,2.318264,5,9
2025-08-20T15:45:23Z,15039,Abbé Groult - Convention,Paris,48.83596927866069,2.302064039509349,0,12
2025-08-20T15:45:23Z,6022,Marché Saint-Germain,Paris,48.85165625855281,2.335500307381153,14,7
2025-08-20T15:45:23Z,21402,Place Aimé Césaire,Clamart,48.783194713067815,2.2429127991199493,0,27
2025-08-20T15:45:23Z,41403,Gare RER - Malleret-Joinville,Alfortville,48.802936,2.42531,18,2
2025-08-20T15:45:23Z,13018,Bruant - Vincent Auriol,Paris,48.834848452929,2.3668264996271,17,8
2025-08-20T15:45:23Z,21303,Jean Monnet - Iles,Issy-les-Moulineaux,48.823393984057304,2.2497073194874866,26,6
2025-08-20T15:45:23Z,33014,Parc Eli Lotar,Aubervilliers,48.91844993053703,2.3727085813879967,3,17
2025-08-20T15:45:23Z,20105,Benoît Frachon - République,Paris,48.85230729014318,2.415605485439301,10,20
2025-08-20T15:45:23Z,33103,Jean Jaurès - Jules Jacquemin,Le Pré-Saint-Gervais,48.88433053604843,2.4082902455152104,1,22
2025-08-20T15:45:23Z,41401,Marne - Charles de Gaulle,Alfortville,48.815071719544434,2.4121668934822087,11,16
2025-08-20T15:45:23Z,6002,Saint-Benoît - Jacob,Paris,48.85545136013941,2.3334722220897675,9,12
2025-08-20T15:45:23Z,14031,Didot - Place de Moro-Giafferi,Paris,48.8337,2.3215,5,17
2025-08-20T15:45:23Z,16019,Porte de la Muette,Paris,48.86302317841182,2.2687188170157406,8,28
2025-08-20T15:45:23Z,33012,Landy - Heurtault,Aubervilliers,48.915096534520316,2.375951372087002,25,5
2025-08-20T15:45:23Z,2013,Favart - Italiens,Paris,48.871446353921,2.3382901058508,7,9
2025-08-20T15:45:23Z,17024,Villiers - Batignolles,Paris,48.881252538461,2.3165384307504,9,14
2025-08-20T15:45:23Z,10019,Paradis - Hauteville,Paris,48.874999954666755,2.3522757401923404,25,6
2025-08-20T15:45:23Z,41203,Stalingrad - Rigollots,Fontenay-sous-Bois,48.84997403844251,2.45557576417923,6,44
2025-08-20T15:45:23Z,20022,Porte de Bagnolet,Paris,48.864707139122984,2.408344637349607,1,32
2025-08-20T15:45:23Z,14026,Plantes - Moulin Vert,Paris,48.83005755305626,2.3232302069664006,5,40
2025-08-20T15:45:23Z,16012,Flandrin - Longchamp,Paris,48.86877849178477,2.274354539176829,12,30
2025-08-20T15:45:23Z,14001,Edgar Quinet - Gaité,Paris,48.841160928966,2.324595451355,14,13
2025-08-20T15:45:23Z,26004,Gare RER les Grésillons,Asnières-sur-Seine,48.919898633572764,2.31458459136273,1,21
2025-08-20T15:45:23Z,1006,Grande Truanderie - Saint-Denis,Paris,48.8626302,2.3498075,17,14
2025-08-20T15:45:23Z,8117,Place de la Madeleine - Royale,Paris,48.869228052648,2.324421107769,33,9
2025-08-20T15:45:23Z,18202,Diane Arbus,Paris,48.898800717199,2.3524022474885,9,29
2025-08-20T15:45:23Z,5015,Epée de Bois - Mouffetard,Paris,48.841508690388835,2.350066713988781,4,58
2025-08-20T15:45:23Z,45002,Roger Salengro - Général de Gaulle,Champigny-sur-Marne,48.820029010376956,2.4846760556101803,16,11
2025-08-20T15:45:23Z,12037,Reuilly - Daumesnil,Paris,48.8395385,2.3972516,7,29
2025-08-20T15:45:23Z,21309,Mairie d'Issy,Issy-les-Moulineaux,48.823767792468,2.2723111510277,15,25
2025-08-20T15:45:23Z,18004,Place des Abbesses,Paris,48.884542726149725,2.3386867716908455,1,7
2025-08-20T15:45:23Z,7012,Cité Vaneau,Paris,48.8542210666207,2.319614924490452,17,9
2025-08-20T15:45:23Z,20008,Pyrénées - Avron,Paris,48.853246898211985,2.405871044529538,7,25
2025-08-20T15:45:23Z,12019,Gare de Reuilly - Picpus,Paris,48.84267354116789,2.3972943797707558,9,17
2025-08-20T15:45:23Z,14135,Jourdan - Cité Universitaire,Paris,48.819897343156676,2.3397007964124366,7,31
2025-08-20T15:45:23Z,8110,Gare Saint-Lazare - Stockholm,Paris,48.877127316667654,2.322417162358761,10,21
2025-08-20T15:45:23Z,20024,Gambetta - Père Lachaise,Paris,48.864295696165875,2.398228667282044,0,29
2025-08-20T15:45:23Z,3010,Beaubourg - Michel-le-Comte,Paris,48.862534941806,2.3543103039265,14,1
2025-08-20T15:45:23Z,12156,Niger - Soult,Paris,48.84369906369085,2.410361237220498,3,20
2025-08-20T15:45:23Z,18140,Porte de Clignancourt - Ney,Paris,48.899641123987095,2.344321422278881,8,32
2025-08-20T15:45:23Z,19002,Centquatre,Paris,48.889333538455,2.3707854375243,8,33
2025-08-20T15:45:23Z,9009,Square Montholon,Paris,48.876620377545024,2.3457641154527664,14,7
2025-08-20T15:45:23Z,16102,Pergolèse - Marbeau,Paris,48.873568706869,2.2815125225299,3,24
2025-08-20T15:45:23Z,4021,Centre Georges Pompidou,Paris,48.861419,2.352581,22,3
2025-08-20T15:45:23Z,19010,Emile Reynaud - Porte de la Villette,Paris,48.90098953630053,2.3887022584676743,1,18
2025-08-20T15:45:23Z,22301,Chausson - Gabriel Péri,Gennevilliers,48.921891003481115,2.2952306270599365,4,18
2025-08-20T15:45:23Z,15132,Bargue -  Dutot,Paris,48.837884,2.308876,4,17
2025-08-20T15:45:23Z,20006,Pyrénées - Plaine,Paris,48.85026702458,2.4062821269035,5,7
2025-08-20T15:45:23Z,14137,Maurice d'Ocagne - General Maudhuy,Paris,48.82414282524159,2.3158789426088333,10,20
2025-08-20T15:45:23Z,14019,Sarrette - Général Leclerc,Paris,48.825030852925,2.3264128693982,5,17
2025-08-20T15:45:23Z,3011,Turbigo - Réaumur,Paris,48.865574047531,2.3564198613167,18,9
2025-08-20T15:45:23Z,31709,Place de la Fraternité,Montreuil,48.85716405838368,2.422847449779511,1,21
2025-08-20T15:45:23Z,8028,Arsène Houssaye - Champs-Elysées,Paris,48.873409276267,2.2977904602885,11,40
2025-08-20T15:45:23Z,10027,Dunkerque - Alsace,Paris,48.879355,2.358379,2,17
2025-08-20T15:45:23Z,10006,Petites Ecuries - Faubourg Saint-Denis,Paris,48.87287120589831,2.3542150855064397,26,2
2025-08-20T15:45:23Z,22401,Charles de Gaulle - Plateau de Vanves,Malakoff,48.82233088973263,2.298571803412886,8,25
2025-08-20T15:45:23Z,14103,Maine - Liancourt,Paris,48.835064363954,2.323731449974,2,25
2025-08-20T15:45:23Z,7021,Bosquet - Saint-Dominique,Paris,48.858651709526,2.3037165802346,27,1
2025-08-20T15:45:23Z,21026,Sèvres - Général Leclerc,Boulogne-Billancourt,48.830121559055,2.2314262390137,27,2
2025-08-20T15:45:23Z,32013,Saint-Denis - Université,Saint-Denis,48.94563430946964,2.3638297989964485,17,7
2025-08-20T15:45:23Z,2003,Saint-Denis - Réaumur,Paris,48.8661116315789,2.3507790675507594,23,5
2025-08-20T15:45:23Z,22503,Joffre - Aigle,La Garenne-Colombes,48.904033,2.245096,6,14
2025-08-20T15:45:23Z,1102,Française - Etienne Marcel,Paris,48.864053304653766,2.347587011754513,37,0
2025-08-20T15:45:23Z,15111,Olivier de Serres - Leriche,Paris,48.83460221715206,2.2957482933998112,1,24
2025-08-20T15:45:23Z,2021,Cléry - Montmartre,Paris,48.867458,2.3445211,37,21
2025-08-20T15:45:23Z,14132,Bézout - Général Leclerc,Paris,48.82884804502439,2.3285973072052,4,26
2025-08-20T15:45:23Z,4014,Blancs-Manteaux - Archives,Paris,48.85941800703,2.3559471219778,22,7
2025-08-20T15:45:23Z,2005,Montmartre - Etienne Marcel,Paris,48.86502194581,2.3450684401448,16,0
2025-08-20T15:45:23Z,14022,Didot - Mariniers,Paris,48.82650543613106,2.313136198271666,2,33
2025-08-20T15:45:23Z,21507,Gardenat-Lapostol - Velettes,Suresnes,48.87387,2.224185,1,19
2025-08-20T15:45:23Z,4015,Mairie du 4ème,Paris,48.855949910497,2.3563823103905,37,6
2025-08-20T15:45:23Z,3003,Fille du Calvaire - Turenne,Paris,48.86210505412563,2.3649600148200993,21,5
2025-08-20T15:45:23Z,9111,Victoire - Laffitte,Paris,48.87514373494672,2.338118505144376,13,7
2025-08-20T15:45:23Z,13125,Gare d'Austerlitz - Pont Charles de Gaulle,Paris,48.842319830109,2.3670300096273,24,31
2025-08-20T15:45:23Z,3005,Sainte-Elisabeth - Turbigo,Paris,48.86610337431,2.3596492409706,22,11
2025-08-20T15:45:23Z,8036,Lisbonne - Monceau,Paris,48.877455676814,2.3096942214195,21,25
2025-08-20T15:45:23Z,6031,Pierre Sarrazin - Saint-Michel,Paris,48.850908146398,2.342130728066,31,2
2025-08-20T15:45:23Z,48005,Eugène Varlin - Place de la Paix,Villejuif,48.792862,2.363093,4,18
2025-08-20T15:45:23Z,14133,Froidevaux - Boulard,Paris,48.835147319625,2.3294411972165,3,32
2025-08-20T15:45:23Z,4012,Tiron - Rivoli,Paris,48.855692253233,2.3579058051109,22,4
2025-08-20T15:45:23Z,41208,Alouettes - Maréchal de Lattre de Tassigny,Fontenay-sous-Bois,48.85511009293948,2.4930700287222862,15,6
2025-08-20T15:45:23Z,42704,Mairie du Kremlin-Bicêtre,Le Kremlin-Bicêtre,48.81191981537702,2.3570189997553825,2,23
2025-08-20T15:45:23Z,1014,Rivoli - Musée du Louvre,Paris,48.86364636851945,2.33409583568573,17,7
2025-08-20T15:45:23Z,4017,Place de l'Hôtel de Ville,Paris,48.8573314,2.351458,13,0
2025-08-20T15:45:23Z,26006,Bas - Gabriel Péri,Asnières-sur-Seine,48.91585580539625,2.2948095202445984,5,25
2025-08-20T15:45:23Z,42211,Séminaire de Conflans - Liberté,Charenton-le-Pont,48.823194,2.404179,6,19
2025-08-20T15:45:23Z,21509,Gardenat Lapostol - Franklin Roosevelt,Suresnes,48.871839,2.222505,3,21
2025-08-20T15:45:23Z,13054,Pau Casals - Neuve Tolbiac,Paris,48.8311602,2.3774395,64,13
2025-08-20T15:45:23Z,2004,Square Pierre Lazareff,Paris,48.867141720746,2.3483933508396,13,2
2025-08-20T15:45:23Z,4018,Saint-Bon - Rivoli,Paris,48.857999643315,2.3502172809763,28,2
2025-08-20T15:45:23Z,10041,Gare du Nord - La Chapelle,Paris,48.884178287286,2.3561057075858,8,10
2025-08-20T15:45:23Z,32019,Place du 8 mai 1945.,Saint-Denis,48.938882272105,2.3566243797541,9,20
2025-08-20T15:45:23Z,2008,Mairie du 2ème,Paris,48.8672190355135,2.3404625437747044,17,10
2025-08-20T15:45:23Z,1026,Place du Lieutenant Henri Karcher,Paris,48.863490871724466,2.3400671035051346,24,6
2025-08-20T15:45:23Z,1116,Ventadour - Opéra,Paris,48.866810653323,2.3343884482519,21,6
2025-08-20T15:45:23Z,1017,Saint-Honoré - 29 juillet,Paris,48.86557114282421,2.330567417577153,19,1
2025-08-20T15:45:23Z,23107,Gare de Sèvres - Ville d'Avray,Sèvres,48.826262366227,2.2001516849313,0,22
2025-08-20T15:45:23Z,6026,Saint-Placide - Cherche Midi,Paris,48.8490535919234,2.325317971408367,10,56
2025-08-20T15:45:23Z,42018,Amédée Huon - Fort d'Ivry,Ivry-sur-Seine,48.805131376899986,2.388489693403244,18,13
2025-08-20T15:45:23Z,1023,Saint-Honoré - Musée du Louvre,Paris,48.863443132848,2.3348781846405,25,6
2025-08-20T15:45:23Z,48008,Guy Môquet - Parvis Georges Marchais,Villejuif,48.79518840095975,2.35943466424942,2,27
2025-08-20T15:45:23Z,19202,Marseillaise - Grenade,Paris,48.889371092747,2.3979396821544,7,37
2025-08-20T15:45:23Z,17021,Jouffroy d'Abbans - Villiers,Paris,48.884215547037,2.3056533560157,3,30
2025-08-20T15:45:23Z,43403,Gare RER - Canadiens,Joinville-le-Pont,48.819659244971,2.4644082766769,14,24
2025-08-20T15:45:23Z,27001,Square Victor Basch,Colombes,48.914304862261,2.2289156913757,11,9
2025-08-20T15:45:23Z,28005,Jean Jaurès - Paul Lafargue,Puteaux,48.884933177666,2.2484488785267,15,13
2025-08-20T15:45:23Z,16139,Suresnes - Muette à Neuilly,Paris,48.868570404348,2.266000919044,1,28
2025-08-20T15:45:23Z,6007,Bréa - Raspail,Paris,48.842738478258,2.3297942217634,3,21
2025-08-20T15:45:23Z,22603,Place de la Division Leclerc,Fontenay-aux-Roses,48.793824988636516,2.2731140430551027,2,32
2025-08-20T15:45:23Z,12113,Cardinal Lavigerie,Paris,48.832934193699835,2.402636749399156,30,16
2025-08-20T15:45:23Z,21119,Belfort - Victor Hugo,Clichy,48.9018492,2.3172724,17,7
2025-08-20T15:45:23Z,16201,Porte Dauphine,Paris,48.871139344351,2.2749781616017,23,42
2025-08-20T15:45:23Z,27006,Victor Hugo - Gare,Colombes,48.923133952658,2.2600970417261,17,4
2025-08-20T15:45:23Z,9019,Victor Massé - Jean-Baptiste Pigalle,Paris,48.8811043724,2.3366955667734,0,17
2025-08-20T15:45:23Z,1024,Coquillière - Louvre,Paris,48.863795909662,2.3425736278296,19,2
2025-08-20T15:45:23Z,2020,Danielle Casanova - Opéra,Paris,48.867643242297,2.3333894088864,17,2
2025-08-20T15:45:23Z,12016,Saint-Mande - Picpus,Paris,48.845127728278,2.4015686296482,5,30
2025-08-20T15:45:23Z,42210,Victor Hugo - Paul Eluard,Charenton-le-Pont,48.819602554907,2.4114319673051,20,12
2025-08-20T15:45:23Z,44008,Youri Gagarine - Commune de Paris,Vitry-sur-Seine,48.782427463041,2.3939734697342,28,4
2025-08-20T15:45:23Z,20140,Paganini - Davout,Paris,48.85135,2.412021,5,17
2025-08-20T15:45:23Z,48012,Stalingrad - Henri Luisette,Villejuif,48.78363092456589,2.366935946761926,1,25
2025-08-20T15:45:23Z,23303,Gare de Robinson,Sceaux,48.7799259211605,2.281828634440899,5,24
2025-08-20T15:45:23Z,20010,Sorbier - Gasnier-Guy,Paris,48.865217631011,2.3936596512794,1,33
2025-08-20T15:45:23Z,15018,Dutot - Place Alleray,Paris,48.836826091766,2.3071701095578,1,55
2025-08-20T15:45:23Z,26012,Jardin Modèle - Pierre Boudou,Asnières-sur-Seine,48.914866710946,2.3057010525935,6,12
2025-08-20T15:45:23Z,20048,Bagnolet - Place Saint-Blaise,Paris,48.85973,2.40334,2,26
2025-08-20T15:45:23Z,45004,République - Louis Loucheur,Champigny-sur-Marne,48.823549261189,2.5101865455508,33,4
2025-08-20T15:45:23Z,17202,Mariotte - Batignolles,Paris,48.884571659595,2.321469503475,3,17
2025-08-20T15:45:23Z,8202,Londres - Europe,Paris,48.878618556803,2.3248164693922,4,23
2025-08-20T15:45:23Z,32011,Stade de France - Francis de Pressensé,Saint-Denis,48.919141953558,2.3620655760169,9,34
2025-08-20T15:45:23Z,12202,Charenton - Wattignies,Paris,48.836919119234,2.3916775206425,7,31
2025-08-20T15:45:23Z,8040,Pierre Charron - Champs-Elysées,Paris,48.870103359864,2.3043501377106,14,16
2025-08-20T15:45:23Z,42030,Stéphanie Bouvard - Gambetta,Ivry-sur-Seine,48.814548138856,2.4024386957288,11,19
2025-08-20T15:45:23Z,20142,Mûriers - Père Lachaise,Paris,48.864130509668044,2.39164982067019,2,18
2025-08-20T15:45:23Z,48001,Chastenet de Géry - Marcel Paul,Villejuif,48.800123,2.3567359,2,22
2025-08-20T15:45:23Z,51008,Martyrs de Châteaubriant - Jean Grandel,Argenteuil,48.951432,2.211214,12,26
2025-08-20T15:45:23Z,21329,Gare - Aristide Briand,Issy-les-Moulineaux,48.821410564722,2.2555950104387,11,17
2025-08-20T15:45:23Z,21704,Place du Maréchal de Lattre de Tassigny,Vanves,48.821707715257055,2.2853431485432423,3,24
2025-08-20T15:45:23Z,19121,Belleville -  Pré Saint-Gervais,Paris,48.875565910073,2.3930460959673,5,16
2025-08-20T15:45:23Z,13015,Chevaleret - Louise Weiss,Paris,48.832586513351,2.37121138812,34,1
2025-08-20T15:45:23Z,25007,Bons Raisins - Voltaire,Rueil-Malmaison,48.87282451461399,2.1947155570850896,8,15
2025-08-20T15:45:23Z,13024,Bobillot - Tolbiac,Paris,48.8255961335041,2.350204177200794,5,28
2025-08-20T15:45:23Z,31104,Mairie de Rosny-sous-Bois,Rosny-sous-Bois,48.871256519012,2.4865807592869,22,8
2025-08-20T15:45:23Z,13116,Place du Docteur Yersin,Paris,48.82010494991975,2.3725583776831627,15,35
2025-08-20T15:45:23Z,11111,Léon Frot - Charonne,Paris,48.854963800335234,2.387217085372007,6,11
2025-08-20T15:45:23Z,15012,Cambronne - Mademoiselle,Paris,48.843277330035214,2.30230766886348,32,35
2025-08-20T15:45:23Z,20003,Pyrénées - Cours de Vincennes,Paris,48.847796779935,2.4061721563339,5,16
2025-08-20T15:45:23Z,41103,Place de la vache noire,Arcueil,48.81040517059777,2.327060401439667,6,15
2025-08-20T15:45:23Z,41602,Place Charles Digeon,Saint-Mandé,48.84354203133597,2.418427169322968,4,27
2025-08-20T15:45:23Z,20012,Buzenval - Vignoles,Paris,48.853858171688,2.4000040814281,1,16
2025-08-20T15:45:23Z,14004,Port Royal - Hôpital Cochin,Paris,48.838608030238,2.3406994164846,4,19
2025-08-20T15:45:23Z,14027,Gergovie - Alésia,Paris,48.83088717455243,2.318882101207347,4,50
2025-08-20T15:45:23Z,42303,Place Eustache Deschamps,Cachan,48.793855,2.336637,10,9
2025-08-20T15:45:23Z,48002,LCL Campus - Place Oscar Niemeyer,Villejuif,48.805342480621576,2.363983690738678,0,37
2025-08-20T15:45:23Z,20020,Pyrénées - Charles Renouvier,Paris,48.86095933229224,2.400421852042113,2,27
2025-08-20T15:45:23Z,12008,Hector Malot - Daumesnil,Paris,48.84693552991762,2.3770876228809357,31,20
2025-08-20T15:45:23Z,13120,Pierre Joseph Desault,Paris,48.82110230800372,2.378775402903557,19,0
2025-08-20T15:45:23Z,15024,Suffren - La Motte-Piquet,Paris,48.850881230919,2.3012199997902,12,10
2025-08-20T15:45:23Z,23803,Sydney Bechet - Jacques Gautier,Garches,48.844373437692,2.1882475733068,5,15
2025-08-20T15:45:23Z,43004,Montreuil - République,Vincennes,48.85026349463687,2.4345204234123234,2,23
2025-08-20T15:45:23Z,17117,Pereire - Saussure,Paris,48.888229075478,2.3101296275854,3,29
2025-08-20T15:45:23Z,16017,Siam - La Pompe,Paris,48.861720329027264,2.275346568555312,3,13
2025-08-20T15:45:23Z,20013,Alexandre Dumas - Place de la Réunion,Paris,48.85533710742046,2.3997703687646292,6,39
2025-08-20T15:45:23Z,25004,Marcel Pourtout - Édouard Manet,Rueil-Malmaison,48.87555620763429,2.1655967831611638,18,6
2025-08-20T15:45:23Z,15027,Duhamel - André Gide,Paris,48.8365662244334,2.312707121097412,1,19
2025-08-20T15:45:23Z,21023,Ancienne Mairie - André Morizet,Boulogne-Billancourt,48.838311,2.234077,13,12
2025-08-20T15:45:23Z,31105,Lavoisier - Missak Manouchian,Rosny-sous-Bois,48.86286468896063,2.495676465332508,11,7
2025-08-20T15:45:23Z,42205,Place Aristide Briand,Charenton-le-Pont,48.82189236575831,2.413003742694855,11,22
2025-08-20T15:45:23Z,17110,Legendre - Nollet,Paris,48.887742186754224,2.320293079881375,7,23
2025-08-20T15:45:23Z,30004,Jean Jaurès - Place de la Libération,Bobigny,48.90617751921,2.4391458057475,18,11
2025-08-20T15:45:23Z,32306,Verdun - Carnot,Romainville,48.883814948134,2.4402657783125,0,28
2025-08-20T15:45:23Z,8007,Rome - Provence,Paris,48.874230055580306,2.325570111724113,8,21
2025-08-20T15:45:23Z,21218,Gabriel Péri - Place de la Libération,Montrouge,48.819828421929,2.3117361743705,5,12
2025-08-20T15:45:23Z,21207,Verdier - République,Montrouge,48.815403766277,2.31739372015,4,24
2025-08-20T15:45:23Z,28002,De Gaulle - Moulin,Puteaux,48.885816808239,2.229607694148,0,1
2025-08-20T15:45:23Z,21205,Arthur Auger - Jean Jaurès,Montrouge,48.813736445585235,2.3069277405738835,2,22
2025-08-20T15:45:23Z,16023,Passy - Place du Costa Rica,Paris,48.8584893,2.2839655,11,22
2025-08-20T15:45:23Z,24007,Jean-Baptiste Charcot - Sainte-Geneviève,Courbevoie,48.90310883721567,2.278892956674099,6,14
2025-08-20T15:45:23Z,15014,Volontaires - Vaugirard,Paris,48.84132050184004,2.30808901725357,26,8
2025-08-20T15:45:23Z,11028,Guillaume Bertrand - République,Paris,48.863825174341,2.380906377155,1,37
2025-08-20T15:45:23Z,13055,M.- A. Lagroua Weill-Hallé -  F. Dolto,Paris,48.828595283857425,2.380220606266108,57,3
2025-08-20T15:45:23Z,22014,Victor Hugo - Bineau,Neuilly-sur-Seine,48.88758225888669,2.2783890366554265,8,16
2025-08-20T15:45:23Z,25002,Hôtel de Ville de Rueil-Malmaison,Rueil-Malmaison,48.878194,2.181724,18,2
2025-08-20T15:45:23Z,20106,Mairie du 20ème,Paris,48.865302324275,2.3990669846535,1,26
2025-08-20T15:45:23Z,6020,Place Saint-André des Arts,Paris,48.852886173881,2.3426544293761,23,12
2025-08-20T15:45:23Z,21007,Rond-Point Rhin et Danube,Boulogne-Billancourt,48.840452820991764,2.2280225157737736,26,27
2025-08-20T15:45:23Z,19007,Flandre - Ourcq,Paris,48.89260159189023,2.3790915682911873,6,22
2025-08-20T15:45:23Z,22007,Commandant Charcot - Bretteville,Neuilly-sur-Seine,48.87530570765423,2.2558460757136345,3,33
2025-08-20T15:45:23Z,12039,Général Michel Bizot - Claude Decaen,Paris,48.83481262982544,2.400927788127704,8,30
2025-08-20T15:45:23Z,5031,Lacépède - Linné,Paris,48.8437035476636,2.354651279747486,12,42
2025-08-20T15:45:23Z,12017,Saint-Mandé - Docteur Arnold Netter,Paris,48.84462585769668,2.404946386814118,6,45
2025-08-20T15:45:23Z,14025,Jacquier - Didot,Paris,48.82953336292279,2.318179272115231,2,28
2025-08-20T15:45:23Z,16104,Paul Valery - Victor Hugo,Paris,48.87137406080164,2.2887128591537476,3,32
2025-08-20T15:45:23Z,20033,Etienne Dolet - Place Maurice Chevalier,Paris,48.86798303359366,2.3851405311143026,5,42
2025-08-20T15:45:23Z,30005,Convention - Campus de Bobigny,Bobigny,48.914920058264,2.4172238067445,5,26
2025-08-20T15:45:23Z,13013,Saint-Marcel - Hôpital,Paris,48.839504424583,2.3609894170229,4,15
2025-08-20T15:45:23Z,21510,Fontaine du Tertre - Calvaire,Suresnes,48.8702539,2.2187778,1,23
2025-08-20T15:45:23Z,17036,Place Tristan Bernard,Paris,48.8794936,2.2915423,7,21
2025-08-20T15:45:23Z,13008,Place d'Italie - Soeur Rosalie,Paris,48.831908520394,2.3546943448098,12,38
2025-08-20T15:45:23Z,1201,Perrault - Place du Louvre,Paris,48.860273568996,2.3412468419093,27,1
2025-08-20T15:45:23Z,22703,Place Jean Mermoz,Bois-Colombes,48.9220937,2.2718348,20,10
2025-08-20T15:45:23Z,24010,Charles de Gaulle - Rue de l'Alma,Courbevoie,48.896620592993,2.252313240191,20,8
2025-08-20T15:45:23Z,26010,Louis Armand - Bernard Palissy,Asnières-sur-Seine,48.916974,2.313384,1,20
2025-08-20T15:45:23Z,20030,Ménilmontant - Père Lachaise,Paris,48.863287291502,2.3869940266013,10,30
2025-08-20T15:45:23Z,16140,Hippodrome de Longchamp,Paris,48.86413226532,2.239905372262,14,16
2025-08-20T15:45:23Z,3201,Payenne - Square George Caïn,Paris,48.8578329,2.3622643,20,4
2025-08-20T15:45:23Z,20035,Pyrénées - Ménilmontant,Paris,48.8693268535238,2.395084574818611,4,22
2025-08-20T15:45:23Z,23106,Pavé des Gardes - Charles Vaillant,Sèvres,48.81168551728,2.2111820107205,0,20
2025-08-20T15:45:23Z,21508,Georges Pompidou - Verdun,Suresnes,48.875481,2.232443,23,1
2025-08-20T15:45:23Z,22302,Gare RER - Général de Gaulle,Gennevilliers,48.933548439566,2.3064726536317,23,17
2025-08-20T15:45:23Z,13053,Chevaleret - Tolbiac,Paris,48.82941,2.375934,18,2
2025-08-20T15:45:23Z,9029,Saint-Lazare - Place d'Estienne d'Orves,Paris,48.8768345,2.3329067,7,32
2025-08-20T15:45:23Z,48011,Epi d'Or - Chevilly,Villejuif,48.781109786782,2.3549050362061,3,17
2025-08-20T15:45:23Z,34009,Dora Maar - Nadia Guendouz,Saint-Ouen-sur-Seine,48.905452421305,2.3220406472683,23,5
2025-08-20T15:45:23Z,41304,Port - Maurice Chevalier,Nogent-sur-Marne,48.832474421632,2.490257616467,22,8
2025-08-20T15:45:23Z,26011,Ménil - Argenteuil,Asnières-sur-Seine,48.925901818305,2.2741496502338,5,14
2025-08-20T15:45:23Z,22208,Stalingrad - Barbara,Bagneux,48.809223658808,2.3175904558822,1,19
2025-08-20T15:45:23Z,35021,Cartier Bresson - Denis Papin,Pantin,48.902616,2.397814,5,26
2025-08-20T15:45:23Z,18018,Carpeaux - Place Jacques Froment,Paris,48.8906542,2.3309428,4,15
2025-08-20T15:45:23Z,10025,Jemmapes - Ecluses Saint-Martin,Paris,48.87748519186726,2.3660067468881607,5,9
2025-08-20T15:45:23Z,22305,Jean Jaurès - Place du Dr Roux,Gennevilliers,48.927567032796,2.2947337017374,19,16
2025-08-20T15:45:23Z,22507,Châteaudun - Place de la Liberté,La Garenne-Colombes,48.90970830301211,2.2454486480600626,3,23
2025-08-20T15:45:23Z,11201,Faubourg St-Antoine - Place de la Nation,Paris,48.8487726,2.393606,7,9
2025-08-20T15:45:23Z,22602,Place Henri Dunant - Gare RER,Fontenay-aux-Roses,48.788093281931,2.2909234046643,5,25
2025-08-20T15:45:23Z,23205,Parc des Pierrettes,Châtillon,48.7973062,2.2909969,1,22
2025-08-20T15:45:23Z,23201,Avenir,Châtillon,48.8103438,2.3003776,3,40
2025-08-20T15:45:23Z,12001,Bastille - Biscornet,Paris,48.851355779579,2.369220033288,55,4
2025-08-20T15:45:23Z,22018,Charles de Gaulle - Les Sablons,Neuilly-sur-Seine,48.880987514929,2.2715748726513,4,31
2025-08-20T15:45:23Z,21320,Président Roosevelt - Rouget de Lisle,Issy-les-Moulineaux,48.83047518749,2.2616135525345,28,12
2025-08-20T15:45:23Z,11001,Richard Lenoir - Place de la Bastille,Paris,48.8538327,2.3697222,49,4
2025-08-20T15:45:23Z,17126,Hélène et François Missoffe - Emile Borel,Paris,48.89990653843488,2.321543991674844,13,19
2025-08-20T15:45:23Z,17127,Porte de Clichy - Place des Nations Unies,Paris,48.896737263309504,2.310542999196392,29,10
2025-08-20T15:45:23Z,34008,Garibaldi - Gabriel Péri,Saint-Ouen-sur-Seine,48.905741911394,2.3316044208059,9,20
2025-08-20T15:45:23Z,23204,Roland Garros - Jean Bouin,Châtillon,48.809460857173,2.2853198638301,4,22
2025-08-20T15:45:23Z,31301,Gare RER,Noisy-le-Sec,48.896280181078,2.4581568985227,18,11
2025-08-20T15:45:23Z,5107,Pontoise - La Tournelle,Paris,48.850458009188,2.3524542754922,20,1
2025-08-20T15:45:23Z,18024,Clignancourt - Ordener,Paris,48.891457726153774,2.348636478060487,9,25
2025-08-20T15:45:23Z,31202,Gabriel Péri - Jules Ferry,La Courneuve,48.926182814311,2.3912295762525,22,3
2025-08-20T15:45:23Z,7201,Place De Fontenoy - Saxe,Paris,48.850270554523,2.3069813815839,9,9
2025-08-20T15:45:23Z,31201,Suzanne Masson,La Courneuve,48.923306888013,2.3847292397611,22,14
2025-08-20T15:45:23Z,15013,Volontaires - Lecourbe,Paris,48.84351378799,2.3065522313118,9,22
2025-08-20T15:45:23Z,13035,Choisy - Tolbiac,Paris,48.82591155587,2.3602393269539,10,10
2025-08-20T15:45:23Z,10114,Granges aux Belles - Hôpital Saint-Louis,Paris,48.874794994841,2.366669436985,2,58
2025-08-20T15:45:23Z,18134,Ney - Porte de Clignancourt,Paris,48.8978867,2.3458001,5,20
2025-08-20T15:45:23Z,13203,Square de Choisy - Eastman,Paris,48.828543456283,2.3583075090494,4,20
2025-08-20T15:45:23Z,21501,Pont de Suresnes,Suresnes,48.867415092322,2.2258946679617,14,4
2025-08-20T15:45:23Z,8038,François 1er - Montaigne,Paris,48.866887649978,2.3066755757207,28,25
2025-08-20T15:45:23Z,22019,Charles de Gaulle,Neuilly-sur-Seine,48.885368380902,2.2595618686871,0,0
2025-08-20T15:45:23Z,18044,Clichy - Douai,Paris,48.883687771522,2.328063700029,4,28
2025-08-20T15:45:23Z,18041,Rochechouart - Martyrs,Paris,48.882193779572,2.3405495658517,6,13
2025-08-20T15:45:23Z,35002,Jean Jaurès - Presles,Pantin,48.907134414988,2.3960057280531,4,26
2025-08-20T15:45:23Z,7109,Place Joffre - Frédéric le Play,Paris,48.853754486938,2.3044242337346,0,38
2025-08-20T15:45:23Z,8039,Colisée - Champs-Elysées,Paris,48.870475399387,2.3076190799475,8,8
2025-08-20T15:45:23Z,16103,Traktir - Foch,Paris,48.872755334614,2.2915497802487,14,8
2025-08-20T15:45:23Z,3004,Place de la République - Temple,Paris,48.867211201859,2.3635464370545,10,7
2025-08-20T15:45:23Z,11014,Place de la Nation - Taillebourg,Paris,48.8488408,2.3973043,6,40
2025-08-20T15:45:23Z,35001,Jean Jaurès - Ouvrières Pivéreuses,Pantin,48.910423437526,2.3995766043663,8,14
2025-08-20T15:45:23Z,15060,Place de la Montagne du Goulet,Paris,48.8443415,2.2773844,20,0
2025-08-20T15:45:23Z,11011,Richard Lenoir - Voltaire,Paris,48.86164273878,2.3727491497993,7,17
2025-08-20T15:45:23Z,15105,Fédération - Suffren,Paris,48.852828153442,2.2978776320815,21,4
2025-08-20T15:45:23Z,18205,Mauroy - Cheminots,Paris,48.897715198403,2.357895075822,10,22
2025-08-20T15:45:23Z,11020,Belfort - Voltaire,Paris,48.8563358,2.3829901,25,25
2025-08-20T15:45:23Z,7025,Octave Gréard - Tour Eiffel,Paris,48.856502977696,2.2931787543289,30,2
2025-08-20T15:45:23Z,4108,Quai de Béthune - Pont de la Tournelle,Paris,48.85097433194,2.3563072085381,11,14
2025-08-20T15:45:23Z,40007,Préfecture de Créteil,Créteil,48.783680285918,2.4544713672215,16,10
2025-08-20T15:45:23Z,23011,Bineau - Louise Michel,Levallois-Perret,48.88666162207,2.2843274474144,8,18
2025-08-20T15:45:23Z,12201,Dugommier,Paris,48.838811048815,2.3896577954292,35,18
2025-08-20T15:45:23Z,26005,Hôtel de Ville d'Asnières sur Seine,Asnières-sur-Seine,48.90999330025577,2.288238108158112,8,20
2025-08-20T15:45:23Z,40003,Centre Hospitalier Intercommunal de Créteil,Créteil,48.797078298909,2.463801423807,11,6
2025-08-20T15:45:23Z,40004,Créteil Village,Créteil,48.79122395576,2.4642198533952,10,15
2025-08-20T15:45:23Z,40008,Créteil Pompadour,Créteil,48.773011623355,2.435166164893,13,31
2025-08-20T15:45:23Z,40015,Iles de Loisirs de Créteil,Créteil,48.780258200618,2.4455094301232,1,22
2025-08-20T15:45:23Z,13106,Bobillot - Paulin Mery,Paris,48.829899841747,2.3543356766749,4,18
2025-08-20T15:45:23Z,10031,Louis Blanc - Aqueduc,Paris,48.882030182599,2.363561578095,9,28
2025-08-20T15:45:23Z,20137,Borrégo - Gambetta,Paris,48.87330497045532,2.4014145880937576,2,23
2025-08-20T15:45:23Z,10013,Alibert - Jemmapes,Paris,48.871044051984,2.3661044619878,10,47
2025-08-20T15:45:23Z,41301,Bois de Vincennes - Gare,Nogent-sur-Marne,48.836022242887,2.470833995083,10,39
2025-08-20T15:45:23Z,34014,Michelet - Dr Bauer,Saint-Ouen-sur-Seine,48.906125424194,2.3440374449846,2,29
2025-08-20T15:45:23Z,21404,Jean Jaurès - Gare de Clamart,Clamart,48.81321981219,2.2716768079163,0,20
2025-08-20T15:45:23Z,17123,Mstislav Rostropovitch - Berthier,Paris,48.892120821173975,2.309234105050564,9,9
2025-08-20T15:45:23Z,4010,Saint-Antoine Sévigné,Paris,48.8550222,2.3612322,28,2
2025-08-20T15:45:23Z,15058,Place du Moulin de Javel,Paris,48.84021670922,2.2716060653329,42,12
2025-08-20T15:45:23Z,32012,Carrefour Pleyel,Saint-Denis,48.92034156960326,2.3438543826341625,18,49
2025-08-20T15:45:23Z,33019,Madeleine Vionnet,Aubervilliers,48.902519074064,2.3740895837545,2,32
2025-08-20T15:45:23Z,15204,Square Bela Bartok,Paris,48.850984480382,2.2844360220351,18,5
2025-08-20T15:45:23Z,1003,Saint-Denis - Rivoli,Paris,48.859059340842,2.3476943001151,35,8
2025-08-20T15:45:23Z,12127,Tremblay - Lac des Minimes,Paris,48.834131261494,2.4547516554594,31,18
2025-08-20T15:45:23Z,8002,Gare Saint-Lazare - Cour du Havre,Paris,48.875674400851,2.3265598341823,27,18
2025-08-20T15:45:23Z,8203,Matignon - Faubourg Saint-Honoré,Paris,48.871499100264,2.3138961727427,20,15
2025-08-20T15:45:23Z,8004,Malesherbes - Place de la Madeleine,Paris,48.870406028483,2.323243509808,68,0
2025-08-20T15:45:23Z,16107,Benjamin Godard - Victor Hugo,Paris,48.865983,2.275725,2,33
2025-08-20T15:45:23Z,9020,Toudouze - Clauzel,Paris,48.87929591733507,2.3373600840568547,7,14
2025-08-20T15:45:23Z,14111,Cassini - Denfert-Rochereau,Paris,48.837525839067,2.3360354080796,3,22
2025-08-20T15:45:23Z,14014,Jourdan - Stade Charléty,Paris,48.819428333369,2.3433353751898,7,52
2025-08-20T15:45:23Z,8026,Messine - Place Du Pérou,Paris,48.875448033960744,2.315508019010038,6,6
2025-08-20T15:45:23Z,13007,Le Brun - Gobelins,Paris,48.835092787824,2.3534681351338,2,16
2025-08-20T15:45:23Z,42016,Pierre et Marie Curie - Maurice Thorez,Ivry-sur-Seine,48.81580226360801,2.376804985105991,4,22
2025-08-20T15:45:23Z,21010,Silly - Galliéni,Boulogne-Billancourt,48.835583838706,2.2325500845909,15,10
2025-08-20T15:45:23Z,25006,Place Nelson Mandela,Rueil-Malmaison,48.862453313908,2.1961666225454,5,17
2025-08-20T15:45:23Z,30002,Jean Rostand - Paul Vaillant Couturier,Bobigny,48.908168131015,2.4530601033354,28,11
2025-08-20T15:45:23Z,11025,Froment - Bréguet,Paris,48.8570414504784,2.37289470306807,37,5
2025-08-20T15:45:23Z,8050,Boétie - Ponthieu,Paris,48.871417284355,2.3076787590981,37,8
2025-08-20T15:45:23Z,13101,Croulebarde - Corvisart,Paris,48.830981659316855,2.3481646925210953,19,15
2025-08-20T15:45:23Z,14108,Le Brix et Mesmin - Jourdan,Paris,48.82234096593411,2.327861653302471,1,20
2025-08-20T15:45:23Z,2022,Saint-Fiacre - Poissonière,Paris,48.870828911558,2.3459213599563,33,2
2025-08-20T15:45:23Z,17025,Chazelles - Courcelles,Paris,48.879406604954,2.3034455627202988,1,34
2025-08-20T15:45:23Z,20143,Ramponeau - Belleville,Paris,48.871031137596,2.379056852114,9,35
2025-08-20T15:45:23Z,43002,Lagny - Victor Basch,Vincennes,48.84884147189881,2.426325418925233,12,14
2025-08-20T15:45:23Z,16138,Saint-Cloud - Hippodrome,Paris,48.85772148887421,2.2549109905958176,3,27
2025-08-20T15:45:23Z,15068,Général Martial Valin - Pont du Garigliano,Paris,48.83823094269141,2.270506024360657,4,12
2025-08-20T15:45:23Z,92002,Théâtre des Amandiers - Palais des sports,Nanterre,48.892648526839,2.2136941552162,14,9
2025-08-20T15:45:23Z,17048,De Toqueville - Terrasse,Paris,48.882428,2.314002,1,27
2025-08-20T15:45:23Z,44017,Jules Guesde - Pont du Port à l'Anglais,Vitry-sur-Seine,48.79628807093802,2.417212128639221,22,6
2025-08-20T15:45:23Z,44010,8 Mai 1945 - 10 Juillet 1940,Vitry-sur-Seine,48.784567029674,2.3979035764933,14,16
2025-08-20T15:45:23Z,9008,Tour d'Auvergne - Rodier,Paris,48.879161,2.343698,0,17
2025-08-20T15:45:23Z,8103,Artois - Berri,Paris,48.87393521240818,2.3064258322119713,15,22
2025-08-20T15:45:23Z,13118,Regnault - Patay,Paris,48.82435782216384,2.377065159380436,61,2
2025-08-20T15:45:23Z,15112,Vigée-Lebrun - Anselme Payen,Paris,48.838683941628375,2.3110422492027287,13,11
2025-08-20T15:45:23Z,13030,Italie - Tolbiac,Paris,48.82557229464416,2.3576171323657036,3,17
2025-08-20T15:45:23Z,48003,Youri Gagarine - Karl Marx,Villejuif,48.78448485079149,2.35908430069685,11,11
2025-08-20T15:45:23Z,9001,Bellefond - Poissonnière,Paris,48.87759897050706,2.348463758826256,6,10
2025-08-20T15:45:23Z,8016,Square Louis XVI,Paris,48.87320440102894,2.323658830743138,24,5
2025-08-20T15:45:23Z,10115,Granges aux Belles,Paris,48.8761373390584,2.3680844979417,2,25
2025-08-20T15:45:23Z,10029,Dunkerque - Rocroy,Paris,48.880726,2.351464,1,22
2025-08-20T15:45:23Z,10161,Gare de l'Est - Faubourg-Saint-Martin,Paris,48.875642647477,2.3594588041306,6,26
2025-08-20T15:45:23Z,41303,Gare de Nogent-le-Perreux,Nogent-sur-Marne,48.83842553348809,2.493693307042122,13,19
2025-08-20T15:45:23Z,1001,Quai de l'Horloge - Pont Neuf,Paris,48.857058739111,2.3417982839439,6,11
2025-08-20T15:45:23Z,5022,Boulangers - Cardinal Lemoine,Paris,48.8462904,2.3521495,6,14
2025-08-20T15:45:23Z,21328,Verger - Colonel Guichard,Issy-les-Moulineaux,48.816376985087,2.2670380088932,2,27
2025-08-20T15:45:23Z,13104,Gare d'Austerlitz - Quai Saint-Bernard,Paris,48.84369030864,2.3657163977623,26,0
2025-08-20T15:45:23Z,8009,Gare Saint-Lazare - Isly,Paris,48.874777677621296,2.326515804784655,12,15
2025-08-20T15:45:23Z,17008,Porte Pouchet-Bessières,Paris,48.8978765,2.3230632,6,16
2025-08-20T15:45:23Z,9014,Faubourg Montmartre - La Fayette,Paris,48.875254549053,2.3408536612988,23,11
2025-08-20T15:45:23Z,31706,Château - République,Bagnolet,48.862923800596,2.4155035614967,7,19
2025-08-20T15:45:23Z,9022,Rossini - Laffitte,Paris,48.87334627510507,2.337980867701675,29,4
2025-08-20T15:45:23Z,19003,Quai de la Seine,Paris,48.884492238407525,2.3703941702842717,14,10
2025-08-20T15:45:23Z,12151,Gare de Lyon - Place Louis Armand,Paris,48.845515089794,2.3726498446286,53,7
2025-08-20T15:45:23Z,5020,Institut du Monde Arabe - Saint-Germain,Paris,48.849063299501,2.3558086529374,21,17
2025-08-20T15:45:23Z,16026,Ranelagh - Mozart,Paris,48.8554439,2.2704418,5,18
2025-08-20T15:45:23Z,26002,Redoute - Les Courtilles,Asnières-sur-Seine,48.929867194519,2.2836696356535,7,33
2025-08-20T15:45:23Z,17043,Belidor - Gouvion-Saint-Cyr,Paris,48.88022154052015,2.2854680567979813,12,26
2025-08-20T15:45:23Z,16039,Exelmans - Versailles,Paris,48.84097491091973,2.264390252530575,27,22
2025-08-20T15:45:23Z,11023,Saint-Maur - Roquette,Paris,48.858688774062955,2.383553994571467,2,44
2025-08-20T15:45:23Z,45003,11 Novembre 1918 - 8 Mai 1945,Champigny-sur-Marne,48.80889533774377,2.5382421165704727,15,22
2025-08-20T15:45:23Z,12111,Claude Decaen - Cannebière,Paris,48.83761417037952,2.397253782195704,5,39
2025-08-20T15:45:23Z,8034,Berri - Haussmann,Paris,48.874746047357135,2.3082953318953514,15,20
2025-08-20T15:45:23Z,19043,Delphine Seyrig - Général Leclerc,Pantin,48.893923963057865,2.39790290594101,19,33
2025-08-20T15:45:23Z,20042,Pyrénées - Emmery,Paris,48.872010281270974,2.392039597034455,2,38
2025-08-20T15:45:23Z,15067,Desaix - Edgar Faure,Paris,48.852804604940296,2.293077029857222,10,2
2025-08-20T15:45:23Z,16108,Sablons - Georges Mandel,Paris,48.863875,2.28189,4,34
2025-08-20T15:45:23Z,17030,Pereire - Rennequin,Paris,48.88364782887555,2.2952447086572647,1,21
2025-08-20T15:45:23Z,11027,Saint-Ambroise - Parmentier,Paris,48.862147844548,2.3772348091006,3,34
2025-08-20T15:45:23Z,12128,Pyramide - Ecole du Breuil,Paris,48.82237977153955,2.4586871266365056,9,25
2025-08-20T15:45:23Z,8010,Liège - Moscou,Paris,48.8795431,2.3264628,9,8
2025-08-20T15:45:23Z,10016,Récollets - Square Villemin,Paris,48.875034655883944,2.359801238597928,7,10
2025-08-20T15:45:23Z,41302,Charles de Gaulle - Beauté,Nogent-sur-Marne,48.83649602312711,2.479562651149885,3,46
2025-08-20T15:45:23Z,15042,Henry Farman,Paris,48.83372430280548,2.2713854536414146,13,3
2025-08-20T15:45:23Z,33102,Gabriel Péri - Francisco Ferrer,Le Pré-Saint-Gervais,48.88633710236977,2.407338917255402,7,11
2025-08-20T15:45:23Z,44006,Concorde - Stalingrad,Vitry-sur-Seine,48.7985844,2.3821302,15,19
2025-08-20T15:45:23Z,14003,Schoelcher - Raspail,Paris,48.83681733526843,2.3312794080411474,5,45
2025-08-20T15:45:23Z,4016,Lobau - Hôtel de Ville,Paris,48.8562118,2.3532536,57,1
2025-08-20T15:45:23Z,14138,Porte de Vanves,Paris,48.828012849445,2.3056878894567,3,29
2025-08-20T15:45:23Z,12114,Victor Hugo - Jeanne Jugan,Paris,48.843949064031825,2.415081394834419,5,23
2025-08-20T15:45:23Z,32308,Gaston Roussel - Commune de Paris,Romainville,48.894440646006,2.4323074841326,0,1
2025-08-20T15:45:23Z,21312,Lucie Aubrac - Fort,Issy-les-Moulineaux,48.818144834008976,2.271184623241425,2,28
2025-08-20T15:45:23Z,5124,Erasme - Ulm,Paris,48.84264375274712,2.3445946723222733,5,19
2025-08-20T15:45:23Z,18046,Etienne Jodelle - Saint Ouen,Paris,48.88794016394694,2.326124420314341,3,28
2025-08-20T15:45:23Z,2111,Chabanais - Petits Champs,Paris,48.86703740186721,2.336716018617153,19,10
2025-08-20T15:45:23Z,15109,Cevennes - Bergers,Paris,48.84240765130395,2.281037718057633,25,3
2025-08-20T15:45:23Z,10042,Enghien - Faubourg Poissonnière,Paris,48.872420063053,2.3483952362828,26,6
2025-08-20T15:45:23Z,19103,Manin - Carrières d'Amérique,Paris,48.884672142095,2.3919698596001,2,17
2025-08-20T15:45:23Z,17203,Place de la Porte de Champeret,Paris,48.886062068226,2.2917001576821,4,24
2025-08-20T15:45:23Z,42014,Place Marcel Cachin,Ivry-sur-Seine,48.81411442356866,2.39090770483017,25,6
2025-08-20T15:45:23Z,14124,David Weill - Parc Montsouris,Paris,48.821092374256104,2.333725690841675,1,21
2025-08-20T15:45:23Z,15133,Saint Lambert - Blomet,Paris,48.83659148147257,2.2930556908249855,5,22
2025-08-20T15:45:23Z,15110,Place Robert Guillemard,Paris,48.836191728066666,2.2811267160086417,21,3
2025-08-20T15:45:23Z,21006,Marcelin Berthelot,Boulogne-Billancourt,48.8415473058801,2.233161628246308,12,14
2025-08-20T15:45:23Z,4201,Sully - Morland,Paris,48.851290697625,2.3624387532495,0,1
2025-08-20T15:45:23Z,48010,Karl Marx,Villejuif,48.784527937293184,2.3646667979455587,10,6
2025-08-20T15:45:23Z,22203,Tertres - Fontaine,Bagneux,48.787553654715644,2.306235730648041,3,24
2025-08-20T15:45:23Z,20115,Louis Lumière - Porte de Bagnolet,Paris,48.86431136000005,2.4105210229754443,6,14
2025-08-20T15:45:23Z,22402,Jean Jaurès - Salvador Allende,Malakoff,48.821475594736775,2.3026576638221745,0,38
2025-08-20T15:45:23Z,9116,Victoire - Chaussée d'Antin,Paris,48.875065791004396,2.3316738009452824,20,4
2025-08-20T15:45:23Z,6025,Assas - Rennes,Paris,48.8492084999386,2.32851454623001,3,29
2025-08-20T15:45:23Z,1020,Cambon - Rivoli,Paris,48.866143390992,2.3251800647137,27,10
2025-08-20T15:45:23Z,17013,Legendre - Dulong,Paris,48.885325169402904,2.316423766314984,2,21
2025-08-20T15:45:23Z,23006,Jules Guesde - Alsace,Levallois-Perret,48.890566275506,2.2950777411461,17,5
2025-08-20T15:45:23Z,17105,Place Madeleine Daniélou,Paris,48.883498,2.282015,7,35
2025-08-20T15:45:23Z,9010,Rochechouart lamartine,Paris,48.876719895109,2.344393021854,6,18
2025-08-20T15:45:23Z,18028,Championnet - Vauvenargues,Paris,48.89401874744574,2.3319872841238976,9,24
2025-08-20T15:45:23Z,18009,Jean-François Lépine - Stephenson,Paris,48.88611466796807,2.356855627529275,2,20
2025-08-20T15:45:23Z,21701,Larmeroux - Baudelaire,Vanves,48.816939911292,2.2809894804846,4,25
2025-08-20T15:45:23Z,22003,Beffroy,Neuilly-sur-Seine,48.886591074488,2.2613945603371,1,25
2025-08-20T15:45:23Z,11024,Mairie du 11ème,Paris,48.858925,2.3789759,29,19
2025-08-20T15:45:23Z,21008,Victor Hugo - Galliéni,Boulogne-Billancourt,48.838020154411,2.2460845112801,11,19
2025-08-20T15:45:23Z,20134,Lieutenant Chauré - Etienne Marey,Paris,48.86746195408435,2.405970990657807,1,19
2025-08-20T15:45:23Z,22016,Charles de Gaulle - Sablonville,Neuilly-sur-Seine,48.87991924860035,2.2763770446181297,4,22
2025-08-20T15:45:23Z,32302,Chemin Vert - Fraternité,Romainville,48.877141208359035,2.4461565166711807,6,14
2025-08-20T15:45:23Z,10014,Marseille - Beaurepaire,Paris,48.871624306962985,2.3639265082738348,19,34
2025-08-20T15:45:23Z,11035,Parmentier - Abel Rabaud,Paris,48.86921273836114,2.371688821240712,7,45
2025-08-20T15:45:23Z,42010,Mairie d'Ivry-sur-Seine,Ivry-sur-Seine,48.81057120969284,2.3842826485633855,32,21
2025-08-20T15:45:23Z,15046,Parc Georges Brassens - Brancion,Paris,48.83227829269761,2.3022570088505745,1,27
2025-08-20T15:45:23Z,46001,Place Paul Eluard,Choisy-le-Roi,48.7672039733195,2.4144977331161503,19,0
2025-08-20T15:45:23Z,16040,Exelmans - Michel-Ange,Paris,48.84309486651855,2.2597770800669053,17,15
2025-08-20T15:45:23Z,22006,Pierret - Madrid,Neuilly-sur-Seine,48.882976576876565,2.260125767248034,6,22
2025-08-20T15:45:23Z,21301,Saint-Vincent - Verdun,Issy-les-Moulineaux,48.819211549234495,2.254007756710053,11,23
2025-08-20T15:45:23Z,42302,Aristide Briand - Gare de Bagneux,Cachan,48.79387269664978,2.321148812770844,9,11
2025-08-20T15:45:23Z,21104,Madame de Sanzillon - Mozart,Clichy,48.90379820774301,2.3187401890754704,15,6
2025-08-20T15:45:23Z,20121,Boyer - Ménilmontant,Paris,48.868895162679,2.3919824145635,1,18
2025-08-20T15:45:23Z,42301,Gare Arcueil - Cachan,Arcueil,48.799824,2.328171,20,5
2025-08-20T15:45:23Z,43003,Hôpital Bégin,Vincennes,48.84571672113,2.4272462725639,7,19
2025-08-20T15:45:23Z,42504,Gare RER de Gentilly,Gentilly,48.814280450380224,2.3410347104072575,2,28
2025-08-20T15:45:23Z,15201,Place Amédée Gordini - Lefebvre,Paris,48.83061737745,2.2920634208276,2,36
2025-08-20T15:45:23Z,31010,Stalingrad - Désiré Chevalier,Montreuil,48.85670169739857,2.445072233676911,7,35
2025-08-20T15:45:23Z,18201,Tristan Tzara -  Tchaïkovski,Paris,48.89490221746837,2.3648490384221077,2,30
2025-08-20T15:45:23Z,51004,Général Delambre - Prebuard,Argenteuil,48.93870344444,2.2234171606307,21,8
2025-08-20T15:45:23Z,18012,Stephenson - Doudeauville,Paris,48.888537048944826,2.3561610281467438,1,35
2025-08-20T15:45:23Z,19125,Place de l'Édit de Nantes,Paris,48.88879,2.3785,8,21
2025-08-20T15:45:23Z,14036,Boulard - Daguerre,Paris,48.83446472680611,2.3293386027216907,4,41
2025-08-20T15:45:23Z,12009,Charenton - Diderot,Paris,48.846171461187,2.3793068155646,8,9
2025-08-20T15:45:23Z,5123,Saint-Germain - Thenard,Paris,48.850571,2.3471015,23,7
2025-08-20T15:45:23Z,11036,Jules Ferry - Faubourg du Temple Paris,Paris,48.868397,2.3678933,38,19
2025-08-20T15:45:23Z,19008,Flandre - Alphonse Karr,Paris,48.89465,2.381868,2,24
2025-08-20T15:45:23Z,12027,Montgallet - Charenton,Paris,48.842647778701,2.3861649278137,9,6
2025-08-20T15:45:23Z,42029,Stalingrad - Germaine Tailleferre,Ivry-sur-Seine,48.80257200481316,2.3786691203713417,24,4
2025-08-20T15:45:23Z,21313,Guynemer - Séverine,Issy-les-Moulineaux,48.83091743371036,2.2790706530213356,17,8
2025-08-20T15:45:23Z,15025,Dupleix - du Guesclin,Paris,48.85147910413369,2.296709530055523,43,4
2025-08-20T15:45:23Z,35018,Ancien Canal - Hélène Brion,Pantin,48.89484799296163,2.4188338592648506,3,18
2025-08-20T15:45:23Z,41606,Pasteur - Gambetta,Saint-Mandé,48.84572797384512,2.4236011505126953,7,11
2025-08-20T15:45:23Z,17011,Fragonard - Porte de Clichy,Paris,48.894155633419,2.3143893107772,40,15
2025-08-20T15:45:23Z,12013,Montgallet - Reuilly,Paris,48.844291,2.3896481,6,9
2025-08-20T15:45:23Z,11115,Montreuil - Gonnet,Paris,48.850500564921,2.3890856287864,3,20
2025-08-20T15:45:23Z,7015,Varenne,Paris,48.857202661803,2.3152771219611,11,36
2025-08-20T15:45:23Z,12115,Porte de Vincennes,Paris,48.846454,2.415514,8,25
2025-08-20T15:45:23Z,15010,Square Cambronne,Paris,48.84756654526,2.3025691509247,17,12
2025-08-20T15:45:23Z,41102,Gare de Laplace,Arcueil,48.80893199114179,2.3349460959434514,10,32
2025-08-20T15:45:23Z,18141,Clignancourt - Sofia,Paris,48.88511992309783,2.34719488842051,5,13
2025-08-20T15:45:23Z,25005,18 juin 1940 - Buzenval,Rueil-Malmaison,48.868807,2.185428,2,23
2025-08-20T15:45:23Z,22505,Mairie de La Garenne Colombes,La Garenne-Colombes,48.90663823468682,2.24679596722126,10,12
2025-08-20T15:45:23Z,13045,Jean Colly - Tolbiac,Paris,48.827817291597846,2.3705490678548813,10,24
2025-08-20T15:45:23Z,19115,Porte de la Villette,Paris,48.89835196548483,2.386150136590004,9,18
2025-08-20T15:45:23Z,16018,Flandrin - Henri Martin,Paris,48.8643275,2.2724174,2,16
2025-08-20T15:45:23Z,12034,Pirogues de Bercy - Libourne,Paris,48.832308,2.38637,46,3
2025-08-20T15:45:23Z,19044,Grands Moulins de Pantin,Paris,48.89738369720229,2.3959985375404362,17,32
2025-08-20T15:45:23Z,42707,Place Jean-Baptiste Clément,Le Kremlin-Bicêtre,48.81240466867336,2.3617091774940495,7,17
2025-08-20T15:45:23Z,92003,Chanzy - Sud-Est,Nanterre,48.888912037698766,2.195632159709931,13,11
2025-08-20T15:45:23Z,5119,Jussieu - Guy de la Brosse,Paris,48.845665,2.355653,30,10
2025-08-20T15:45:23Z,35009,Jean Lolive - Parc Stalingrad,Pantin,48.89206174403158,2.4091735482215886,3,19
2025-08-20T15:45:23Z,10206,René Boulanger - Lancry,Paris,48.868769331741,2.3598745346052,10,23
2025-08-20T15:45:23Z,21109,Guichet - Jean Jaurès,Clichy,48.905169868129036,2.3023840785026555,12,15
2025-08-20T15:45:23Z,23701,Parvis Robert Schuman - Roger Salengro,Chaville,48.812657470558754,2.1921751275658607,8,16
2025-08-20T15:45:23Z,17007,Navier - Epinettes,Paris,48.89587780769155,2.3226776719093327,3,51
2025-08-20T15:45:23Z,31012,Place Carnot,Montreuil,48.85593932186797,2.441531717777252,6,18
2025-08-20T15:45:23Z,12024,Gare de Bercy,Paris,48.839794573906,2.3826066032052,31,4
2025-08-20T15:45:23Z,16129,Ceinture du Lac Inferieure - Saint-Cloud,Paris,48.86218070933143,2.2617871686816216,2,38
2025-08-20T15:45:23Z,14104,Boyer-Barret - Raymond Losserand,Paris,48.83329880233322,2.3173383995890617,3,20
2025-08-20T15:45:23Z,20113,Piat - Parc de Belleville,Paris,48.87195626635528,2.384981390278095,0,21
2025-08-20T15:45:23Z,20119,Square des Saint-Simoniens,Paris,48.8701796,2.3967273,0,25
2025-08-20T15:45:23Z,6030,Assas - Vaugirard,Paris,48.848274111398,2.3292413726449,3,32
2025-08-20T15:45:23Z,12126,Gravelle - Route du Bac,Paris,48.824407,2.418455,10,41
2025-08-20T15:45:23Z,19019,Petit - Manin,Paris,48.886506875343,2.3938155401308,4,18
2025-08-20T15:45:23Z,41604,Lagny - Joffre,Saint-Mandé,48.84930687084088,2.417949736118317,16,15
2025-08-20T15:45:23Z,15029,Emeriau - Place de Brazzaville,Paris,48.850785261674964,2.2871585190296173,48,1
2025-08-20T15:45:23Z,10005,Petites Ecuries - Faubourg Poissonnière,Paris,48.87397217237368,2.348388757504776,8,9
2025-08-20T15:45:23Z,18020,Francoeur - Marcadet,Paris,48.89104123261663,2.340014585442034,1,19
2025-08-20T15:45:23Z,20136,Henri Chevreau - Couronnes,Paris,48.87033205312931,2.388777695596218,2,22
2025-08-20T15:45:23Z,5026,Pascal - Claude Bernard,Paris,48.839061952159746,2.3499782010912895,39,6
2025-08-20T15:45:23Z,43006,Vignerons - Minimes,Vincennes,48.841486,2.430793,24,5
2025-08-20T15:45:23Z,15028,Grenelle - Dr Finlay,Paris,48.851315406715976,2.2919502854347233,66,3
2025-08-20T15:45:23Z,8102,Lamennais - Washington,Paris,48.87352990026496,2.303444892168045,6,19
2025-08-20T15:45:23Z,14018,Porte d'Orléans,Paris,48.8227639,2.3249313,12,34
2025-08-20T15:45:23Z,21013,Pierre Grenier - Pont de Billancourt,Boulogne-Billancourt,48.8258020742942,2.2487989068031315,15,6
2025-08-20T15:45:23Z,42503,Vladimir Ilitch Lénine - Andrée Chedid,Gentilly,48.813240124373,2.3319716067039,1,29
2025-08-20T15:45:23Z,5116,Place Valhubert,Paris,48.844182577315,2.3640366643667,38,12
2025-08-20T15:45:23Z,7014,Saint-François-Xavier,Paris,48.85154484769,2.3146149516106,16,25
2025-08-20T15:45:23Z,92004,Nanterre - Université,Nanterre,48.901365,2.212693,0,20
2025-08-20T15:45:23Z,23002,Pont de Levallois-bécon,Levallois-Perret,48.8984179,2.2791311,28,19
2025-08-20T15:45:23Z,15055,Vasco de Gama,Paris,48.83671783466264,2.283664085650799,41,13
2025-08-20T15:45:23Z,14130,Jonquoy - Didot,Paris,48.82890454823947,2.31648076325655,2,28
2025-08-20T15:45:23Z,10015,Lucien Sampaix - Récollets,Paris,48.874330377560476,2.3621229082345963,22,23
2025-08-20T15:45:23Z,10023,Gare de l'Est - Verdun,Paris,48.876156054271,2.3609149083206,0,14
2025-08-20T15:45:23Z,21308,Bara - Henri Farman,Issy-les-Moulineaux,48.833218027457846,2.2677567601203923,47,11
2025-08-20T15:45:23Z,19037,Belleville - Porte des Lilas,Paris,48.87660391892763,2.404769691129476,5,22
2025-08-20T15:45:23Z,21032,Sèvres-Gallieni,Boulogne-Billancourt,48.837809408957,2.2281519323587,17,10
2025-08-20T15:45:23Z,21019,Edouard Vaillant - Paul-Adolphe Souriau,Boulogne-Billancourt,48.834845858829,2.2479459643364,5,23
2025-08-20T15:45:23Z,21105,Morice - Général Leclerc,Clichy,48.90245471981591,2.3128929734230046,15,10
2025-08-20T15:45:23Z,18032,Porte de Clignancourt.,Paris,48.897488,2.343996,9,47
2025-08-20T15:45:23Z,17027,Place du Maréchal Juin - Péreire,Paris,48.885263,2.298286,5,37
2025-08-20T15:45:23Z,51003,Hôtel de Ville d'Argenteuil,Argenteuil,48.946504,2.2496396,4,25
2025-08-20T15:45:23Z,22101,Gare Routière de Saint Cloud,Saint-Cloud,48.84288183896324,2.222245037555695,30,1
2025-08-20T15:45:23Z,13043,Dunois - Clisson,Paris,48.832294,2.3674523,48,2
2025-08-20T15:45:23Z,44102,Verdun - Adrien Damalix,Saint-Maurice,48.8222334178559,2.4215328320860863,5,21
2025-08-20T15:45:23Z,16032,Eglise d'Auteuil,Paris,48.84749841771691,2.26848387135299,2,19
2025-08-20T15:45:23Z,18025,Mairie du 18ème,Paris,48.892939296937605,2.3445510864257812,9,29
2025-08-20T15:45:23Z,20027,Porte de Ménilmontant,Paris,48.8691543609174,2.40932246879487,1,14
2025-08-20T15:45:23Z,9023,Laffitte - Italiens,Paris,48.871815737396,2.3372015478451,27,6
2025-08-20T15:45:23Z,16123,Mahatma Gandhi,Paris,48.876356,2.264205,16,10
2025-08-20T15:45:23Z,8051,Batignolles - Rome,Paris,48.881823370567,2.3202589899302,2,13
2025-08-20T15:45:23Z,19040,Belleville - Télégraphe,Paris,48.8756045,2.3995549,5,36
2025-08-20T15:45:23Z,17047,Courcelles - Pierre Demours,Paris,48.883769733273496,2.29858466343129,2,23
2025-08-20T15:45:23Z,41204,République - Danton,Fontenay-sous-Bois,48.85249172181667,2.462034523487091,2,18
2025-08-20T15:45:23Z,17046,Mac-Mahon - Brey,Paris,48.877532084130166,2.294512536052928,7,18
2025-08-20T15:45:23Z,19009,Cité des Sciences et de l'Industrie,Paris,48.89659571178903,2.384599149227142,5,20
2025-08-20T15:45:23Z,18109,Pajol - Riquet,Paris,48.88960028134536,2.3628534749150276,6,41
2025-08-20T15:45:23Z,19038,Lassus - Delouvain,Paris,48.8755044846,2.3890327325519,3,17
2025-08-20T15:45:23Z,16021,François Ponsard - La Muette,Paris,48.8583666,2.2744515,2,21
2025-08-20T15:45:23Z,9031,Provence - Chaussée d'Antin,Paris,48.87428447542072,2.332976511564311,11,13
2025-08-20T15:45:23Z,9117,Bellefond - Maubeuge,Paris,48.878255397645,2.3452642187476,5,25
2025-08-20T15:45:23Z,20023,Pelleport - Belgrand,Paris,48.86500081847653,2.403980836377493,1,14
2025-08-20T15:45:23Z,15035,Place Etienne Pernet,Paris,48.84243457133779,2.2921819612383847,25,17
2025-08-20T15:45:23Z,18049,Porte d'Aubervilliers,Paris,48.89859661942376,2.3689722642302513,16,38
2025-08-20T15:45:23Z,10020,Chabrol - d'Hauteville,Paris,48.877018388033,2.3513179644942,4,7
2025-08-20T15:45:23Z,18113,Lepic - Armée d'Orient,Paris,48.887536403814,2.3343077301979,5,19
2025-08-20T15:45:23Z,34010,Hôtel de Ville de Saint-Ouen,Saint-Ouen-sur-Seine,48.911380185786,2.3340076807601,30,18
2025-08-20T15:45:23Z,11041,Square Saint-Ambroise,Paris,48.860934,2.375841,12,30
2025-08-20T15:45:23Z,35003,Gabrielle Josserand - Edouard Vaillant,Pantin,48.90271566255436,2.3933270573616032,5,20
2025-08-20T15:45:23Z,21014,Hameau Fleuri - Marché,Boulogne-Billancourt,48.831448892608314,2.2412404417991643,18,3
2025-08-20T15:45:23Z,47005,Ecole Vétérinaire,Maisons-Alfort,48.81488859822486,2.4224362157778994,31,5
2025-08-20T15:45:23Z,19127,Aubervilliers - Curial,Paris,48.89088305227546,2.3688579350709915,0,22
2025-08-20T15:45:23Z,16015,Bassano -  Iéna,Paris,48.868144510482075,2.296149600985935,5,10
2025-08-20T15:45:23Z,17040,Pereire - Ternes,Paris,48.87973954830735,2.288012132048607,2,46
2025-08-20T15:45:23Z,1120,Lavandieres Sainte Opportune - Rivoli,Paris,48.859279702476,2.3466217517853,24,2
2025-08-20T15:45:23Z,9026,Jean-Baptiste Pigalle - La Bruyere,Paris,48.87939826447722,2.333709173337285,2,15
2025-08-20T15:45:23Z,16122,Route de la Muette - Porte de Neuilly,Paris,48.8798926,2.2587671,4,45
2025-08-20T15:45:23Z,15002,Maine - Antoine Bourdelle,Paris,48.84308531746595,2.320263946784738,2,15
2025-08-20T15:45:23Z,21310,Kléber - Gouverneur Général Eboué,Issy-les-Moulineaux,48.826885843069796,2.2723413258790965,22,2
2025-08-20T15:45:23Z,23007,Président Wilson - Jean Jaures,Levallois-Perret,48.89034054052266,2.2920683026313786,12,12
2025-08-20T15:45:23Z,20116,Haies - Réunion,Paris,48.85386896766491,2.402426162238911,3,19
2025-08-20T15:45:23Z,6107,Place Alphonse Deville,Paris,48.850188262662,2.3275961726904,16,7
2025-08-20T15:45:23Z,16029,Maison de Radio - France,Paris,48.85132886434057,2.277785539627075,41,4
2025-08-20T15:45:23Z,8019,Naples - Rome,Paris,48.879960700846226,2.321358695626259,0,26
2025-08-20T15:45:23Z,9017,Lallier - Trudaine,Paris,48.88109246617963,2.3408224806189537,6,23
2025-08-20T15:45:23Z,7008,Villersexel - Saint-Germain,Paris,48.858297001218,2.3237934708595,6,10
2025-08-20T15:45:23Z,20201,Eugène Reisz - Davout,Paris,48.85631874632638,2.410396970808506,3,17
2025-08-20T15:45:23Z,15003,Gare Montparnasse - Vaugirard,Paris,48.8418071798797,2.31951002690117,11,54
2025-08-20T15:45:23Z,4110,Neuve Saint-Pierre - Beautreillis,Paris,48.85355351439652,2.3639122769236565,18,0
2025-08-20T15:45:23Z,6032,Sabot - Rennes,Paris,48.852575112948415,2.331552766263485,16,9
2025-08-20T15:45:23Z,7020,Champ de Mars - Cler,Paris,48.856691550115315,2.306646779179573,30,8
2025-08-20T15:45:23Z,23304,Mairie de Sceaux,Sceaux,48.778916905132,2.2887361764861,12,17
2025-08-20T15:45:23Z,6017,Sénat - Condé,Paris,48.84954227788459,2.337939441204071,6,27
2025-08-20T15:45:23Z,12161,Diderot - Reuilly,Paris,48.847208456061,2.3861273378134,38,5
2025-08-20T15:45:23Z,15107,Palais des Sports,Paris,48.833468517426,2.2858720645308,10,12
2025-08-20T15:45:23Z,18017,Caulaincourt - Place Constantin Pecqueur,Paris,48.889677905028,2.3381787144261,13,29
2025-08-20T15:45:23Z,11043,Place Pasdeloup,Paris,48.862654215631,2.3670325062844,16,5
2025-08-20T15:45:23Z,1117,Pont Neuf - Rivoli,Paris,48.860089892617,2.344057559967,25,2
2025-08-20T15:45:23Z,15059,Parc André Citroën,Paris,48.840639944297,2.2780618071556,0,49
2025-08-20T15:45:23Z,31704,Jeanne Hornet - Girardot,Bagnolet,48.873802681432146,2.427820265293122,1,28
2025-08-20T15:45:23Z,32603,Calmette,Les Lilas,48.88104925098552,2.424993216991425,4,28
2025-08-20T15:45:23Z,17201,Porte Maillot - Perreire,Paris,48.878021154637,2.2842371277102,20,29
2025-08-20T15:45:23Z,23403,Chateau,Bourg-la-Reine,48.774661399959,2.3135878035462,4,16
2025-08-20T15:45:23Z,23903,Stade Gaston Bouillant,Villeneuve-la-Garenne,48.939958667023,2.3279571813836,4,24
2025-08-20T15:45:23Z,45001,Hôtel de Ville de Champigny sur Marne,Champigny-sur-Marne,48.813810628405,2.5096759200096,19,2
2025-08-20T15:45:23Z,9118,Faubourg Poissonniere - Delta,Paris,48.882555807626765,2.3497482016682625,2,32
2025-08-20T15:45:23Z,21024,Billancourt - Général Leclerc,Boulogne-Billancourt,48.8322649,2.2380413,19,3
2025-08-20T15:45:23Z,2001,Greneta - Sebastopol,Paris,48.865242333228,2.3516669869423,27,2
2025-08-20T15:45:23Z,13041,Porte d'Ivry,Paris,48.821768747596,2.3688706755638,9,41
2025-08-20T15:45:23Z,4011,Hôtel de Ville - Pont-Marie,Paris,48.853899645527,2.3569472506642,29,5
2025-08-20T15:45:23Z,14006,Saint-Jacques - Tombe Issoire,Paris,48.833206330538864,2.3369108140468597,1,22
2025-08-20T15:45:23Z,8056,Beaujon - Wagram,Paris,48.875352455985,2.2964416444302,4,25
2025-08-20T15:45:23Z,10207,Charles Robin - Grange aux Belles,Paris,48.877376705016,2.3698456519833,0,1
2025-08-20T15:45:23Z,21114,Gustave Eiffel - Parc des Impressionnistes,Clichy,48.90390619651018,2.2946908324956894,5,25
2025-08-20T15:45:23Z,32018,Franciade - Gabriel Péri,Saint-Denis,48.93261499331498,2.355954498052597,7,19
2025-08-20T15:45:23Z,20202,Dupont de l'Eure - Gambetta,Paris,48.8679385,2.4003649,1,30
2025-08-20T15:45:23Z,18019,Square Raymond Souplex,Paris,48.89183721478911,2.335426103165901,5,45
2025-08-20T15:45:23Z,11003,Keller - La Roquette,Paris,48.8555508,2.3752778,11,21
2025-08-20T15:45:23Z,16202,Commandant Schloesing - Pétrarque,Paris,48.861773096259,2.2838841134601,0,30
2025-08-20T15:45:23Z,11034,Parmentier - Fontaine au Roi,Paris,48.86787670551736,2.372705978671471,12,36
2025-08-20T15:45:23Z,9012,Rougemont - Poissonnière,Paris,48.871611569354755,2.345873080193996,39,4
2025-08-20T15:45:23Z,20017,Saint-Blaise - Mouraud,Paris,48.85696177597818,2.40869477391243,0,27
2025-08-20T15:45:23Z,11019,Charonne - Philippe-Auguste,Paris,48.855603162026,2.39054639062,11,20
2025-08-20T15:45:23Z,15063,Convention - Saint-Charles,Paris,48.843156111116,2.2831090539694,20,2
2025-08-20T15:45:23Z,21108,Mairie de Clichy,Clichy,48.903653634661,2.3059353232384,16,35
2025-08-20T15:45:23Z,6014,Pont de Lodi - Dauphine,Paris,48.855296898603285,2.339947307565249,21,1
2025-08-20T15:45:23Z,14116,Romain Rolland,Montrouge,48.820215229662765,2.3234144234418346,3,22
2025-08-20T15:45:23Z,47002,Les Juilliottes,Maisons-Alfort,48.8043072,2.4437362,17,2
2025-08-20T15:45:23Z,33005,République - Henri Barbusse,Aubervilliers,48.90661553626751,2.389432489871979,17,14
2025-08-20T15:45:23Z,1016,Thérèse - Opéra,Paris,48.866483514509,2.3344334212238,20,4
2025-08-20T15:45:23Z,8015,Roquépine - Malesherbes,Paris,48.873450733908,2.3204044997692,45,7
2025-08-20T15:45:23Z,5019,Poissy - Saint-Germain,Paris,48.84969649427,2.3529685288668,19,6
2025-08-20T15:45:23Z,14007,Ferrus - Saint-Jacques,Paris,48.8313878,2.3408563,5,29
2025-08-20T15:45:23Z,10164,Claude Vellefaux - Sambre et Meuse,Paris,48.875022,2.370478,5,29
2025-08-20T15:45:23Z,11107,Faidherbe - Dahomey,Paris,48.851358329771806,2.383823134795429,41,3
2025-08-20T15:45:23Z,3101,Porte Saint-Martin,Paris,48.86860172112996,2.35570102930069,12,21
2025-08-20T15:45:23Z,45504,Stade - Chevilly,Chevilly-Larue,48.762769890152,2.3378724861293,0,1
2025-08-20T15:45:23Z,8049,Georges V - François 1er,Paris,48.87034,2.30082,4,18
2025-08-20T15:45:23Z,2101,Bachaumont - Montmartre,Paris,48.86617395079137,2.3449775576591496,31,2
2025-08-20T15:45:23Z,19021,Mairie du 19ème,Paris,48.88256264247959,2.3812624812126164,5,22
2025-08-20T15:45:23Z,8105,François 1er - Lincoln,Paris,48.869517979344,2.3024262188416,3,28
2025-08-20T15:45:23Z,19030,Melun - Jean Jaurès,Paris,48.8837796723475,2.376477420330048,5,23
2025-08-20T15:45:23Z,35008,Place de l'Eglise - Pantin,Pantin,48.892809461520265,2.4124351143836975,3,27
2025-08-20T15:45:23Z,5030,Sorbonne - Ecoles,Paris,48.849686566191,2.3434996604919,20,29
2025-08-20T15:45:23Z,21952,Place Tony de Graaff,Meudon,48.8181645,2.2458109,19,23
2025-08-20T15:45:23Z,17033,Carnot - Général Lanrezac,Paris,48.875443870736,2.2938242935036,2,28
2025-08-20T15:45:23Z,2201,Vivienne - Petits Champs,Paris,48.867331390877,2.3391437530518,0,30
2025-08-20T15:45:23Z,17005,Brochant - Clichy,Paris,48.89032998912038,2.319730559929781,9,43
2025-08-20T15:45:23Z,21017,Place Marcel Sembat,Boulogne-Billancourt,48.83328865030686,2.2441747784614567,14,42
